Name,Naics Code Description,NAICS Code,Address,City,County,State,Zip Code,"Excess Food Estimate, Low (tons per year)","Excess Food Estimate, High (tons per year)",UniqueID,Longitude,Latitude,AvgExcessFoodWaste
02 Cafe,Full-Service Restaurants,722511,1001 Massachusetts Ave,Cambridge,Middlesex,MA,2138,7.8933855,11.872,RFS29363,-71.112600031737,42.369921119188,9.88269275
1 Lucky House LLC,Full-Service Restaurants,722511,657 Quincy Shore Dr,Quincy,Norfolk,MA,2170,4.1321445,6.784,RFS238826,-71.01428559871,42.278452859692,5.45807225
"1 On 1 Strong, Inc.",Full-Service Restaurants,722511,7 Marble St Ste B1,Whitman,Plymouth,MA,2382,1.2955635,3.392,RFS244114,-70.932417381782,42.079940832696,2.34378175
100 Main Cafe LLC,Full-Service Restaurants,722511,129 Westview Dr,Westford,Middlesex,MA,1886,10.1486385,15.264,RFS63038,-71.449229475127,42.565284553754,12.70631925
1000 Degrees Pizza,Limited-Service Restaurants,722513,45 Court St,Boston,Suffolk,MA,2108,2.4008655,13.5,RFS394499,-71.058746977202,42.359145684359,7.95043275
1000bamboo Inc.,Full-Service Restaurants,722511,329 Harvard St APT 20,Cambridge,Middlesex,MA,2139,1.741806,1.741806,RFS165705,-71.108454271771,42.370537552362,1.741806
101 Edgewater Cafe,Full-Service Restaurants,722511,101 Edgewater Dr,Wakefield,Middlesex,MA,1880,11.276265,16.96,RFS30842,-71.04438371476,42.519689983981,14.1181325
1048 North Main Street LLC,Limited-Service Restaurants,722513,1048 N Main St,Randolph,Norfolk,MA,2368,16.528611,24,RFS290497,-71.059337286164,42.191523434947,20.2643055
105 Martket Street Realty Trust,Full-Service Restaurants,722511,105 Market St,Lowell,Middlesex,MA,1852,6.6,8.48,RFS36662,-71.310694814331,42.644545268101,7.54
1056 Gyro and Kebab House Corp,Full-Service Restaurants,722511,1056 Great Plain Ave,Needham,Norfolk,MA,2492,1.5296325,11.872,RFS37525,-71.238652022365,42.280157656517,6.70081625
107 Salem Restaurant Inc.,Full-Service Restaurants,722511,107 Salem St,Boston,Suffolk,MA,2113,5.1268965,15.264,RFS38948,-71.055470253938,42.364178577091,10.19544825
11 11 Health Bar,Snack and Nonalcoholic Beverage Bars,722515,87 Union St,Newton,Middlesex,MA,2459,9.021012,12,RFS451047,-71.192609305516,42.329718706051,10.510506
"11 Fan Pier Restaurant, LLC",Full-Service Restaurants,722511,11 Fan Pier Blvd,Boston,Suffolk,MA,2210,1.4395095,11.872,RFS41646,-71.045444545372,42.353782423957,6.65575475
"11 North Beacon Street, LLC",Full-Service Restaurants,722511,11 North Beacon St,Watertown,Middlesex,MA,2472,16.0882425,25.44,RFS41762,-71.183187731389,42.36494654125,20.76412125
110 Grill,Limited-Service Restaurants,722513,1175 Main St,Haverhill,Essex,MA,1830,2.6894835,12,RFS300296,-71.102764873267,42.809756620811,7.34474175
110 Grill Fall River,Limited-Service Restaurants,722513,560 William St,Fall River,Bristol,MA,2721,57.362,69,RFS409117,-71.161822054293,41.697282022187,63.181
110 Grill Ms Leominster LLC,Limited-Service Restaurants,722513,4 Lan Dr,Westford,Middlesex,MA,1886,47.360346,63,RFS385331,-71.431104476848,42.560919254916,55.180173
110 Littleton LLC,Full-Service Restaurants,722511,584 King St,Littleton,Middlesex,MA,1460,10.1486385,15.264,RFS225347,-71.467501154609,42.549290287299,12.70631925
110 Roastbeef & Seadfood LLC,Limited-Service Restaurants,722513,66 Haverhill Rd,Amesbury,Essex,MA,1913,17.1608085,24,RFS420400,-70.947421413885,42.841778936387,20.58040425
"118 Restaurant, Inc.",Full-Service Restaurants,722511,59 Dutton St,Malden,Middlesex,MA,2148,1.157871,6.784,RFS225886,-71.073702593284,42.438471001751,3.9709355
1216 Gorham Street Incorporated,Full-Service Restaurants,722511,1216 Gorham St,Lowell,Middlesex,MA,1852,2.30241,11.872,RFS56798,-71.305787406923,42.622613298489,7.087205
128 Round Table Inc,Full-Service Restaurants,722511,151 Merrimac St Ste 600,Boston,Suffolk,MA,2114,,,RFS81322,-71.06271069614,42.363869536446,
135 Grill Corp,Limited-Service Restaurants,722513,672 Waverley St,Framingham,Middlesex,MA,1702,9.021012,12,RFS421469,-71.426532988484,42.27341509478,10.510506
138 Restaurant Inc,Full-Service Restaurants,722511,403 Lowell St,Wakefield,Middlesex,MA,1880,1.4395095,11.872,RFS186266,-71.063481565706,42.517308303666,6.65575475
138 Thai Restuarant,Full-Service Restaurants,722511,701 Broadway,Raynham,Bristol,MA,2767,3.640956,13.568,RFS245061,-71.072191542356,41.950011068099,8.604478
"141 Sandwich Road, Inc.",Limited-Service Restaurants,722513,800 Gifford Street EXT,Falmouth,Barnstable,MA,2540,14.964,19.692189,RFS433152,-70.605699963403,41.585068309128,17.3280945
"142 Berkely, LLC",Full-Service Restaurants,722511,93 Atlantic Ave,Swampscott,Essex,MA,1907,21.4510065,21.4510065,RFS276667,-70.89206971213,42.472652062022,21.4510065
148 Sandwich Road LLC,Limited-Service Restaurants,722513,420 Blacksmith Shop Rd,East Falmouth,Barnstable,MA,2536,11.223,14.7691335,RFS390050,-70.605302280879,41.602133013555,12.99606675
154 Maverick LLC,Full-Service Restaurants,722511,154 Maverick St,Boston,Suffolk,MA,2128,3.256539,15.264,RFS83697,-71.03812817136,42.369855186246,9.2602695
16 Handles Walpole,Limited-Service Restaurants,722513,102 Providence Hwy,East Walpole,Norfolk,MA,2032,1.122462,4.5,RFS288244,-71.203447174962,42.155641690735,2.811231
16 Park Drive LLC,Full-Service Restaurants,722511,47 Swan Rd,Winchester,Middlesex,MA,1890,1.7874615,11.872,RFS202530,-71.156593123711,42.442537358169,6.82973075
"160 Boston Turnpike Market, Inc.",Limited-Service Restaurants,722513,160 Boston Tpke,Shrewsbury,Worcester,MA,1545,15.3022485,24,RFS322855,-71.747398075904,42.27483667825,19.65112425
1625 Exchange Inc,Full-Service Restaurants,722511,1625 Tremont St,Boston,Suffolk,MA,2120,2.3513985,11.872,RFS89286,-71.103427122246,42.333770105388,7.11169925
163 Vietnam Sandwich,Full-Service Restaurants,722511,66 Harrison Ave,Boston,Suffolk,MA,2111,2.030424,13.568,RFS239051,-71.061138738623,42.351416538973,7.799212
1645 Concord Street LLC,Limited-Service Restaurants,722513,19 Westgate Rd,Framingham,Middlesex,MA,1701,8.7050865,20.352,RFS333817,-71.455495144745,42.300811353693,14.52854325
168 Zheng Garden Inc.,Full-Service Restaurants,722511,1351 Washington St,Newton,Middlesex,MA,2465,1.6119675,5.088,RFS69069,-71.228872724424,42.34875170145,3.34998375
180 Cafe,Full-Service Restaurants,722511,23 Edinboro St,Boston,Suffolk,MA,2111,13.289496,16.96,RFS127701,-71.059862692418,42.352312387788,15.124748
"192 Merrimack Street, LLC",Limited-Service Restaurants,722513,354 Merrimack St,Lawrence,Essex,MA,1843,2.302707,9,RFS378831,-71.144270469531,42.703308585076,5.6513535
"1st Stop Cafe, Inc.",Full-Service Restaurants,722511,369 Walnut Street EXT,Agawam,Hampden,MA,1001,2.5457355,2.5457355,RFS177034,-72.629177835153,42.090027855549,2.5457355
2 Debi's Convenience/Deli LLC,Limited-Service Restaurants,722513,516 Pleasant St,Brockton,Plymouth,MA,2301,10.973523,16.5,RFS403850,-71.04060610463,42.089451683486,13.7367615
2 H Corporate Chef Inc.,Full-Service Restaurants,722511,48 Uxbridge St APT 1,Worcester,Worcester,MA,1605,1.4395095,11.872,RFS204379,-71.78826471739,42.283921742434,6.65575475
"2 Ice House, LLC",Full-Service Restaurants,722511,128 Warren St,Lowell,Middlesex,MA,1852,1.060092,5.088,RFS62370,-71.303946827899,42.642213070437,3.074046
200 Main Grill LLC,Limited-Service Restaurants,722513,200 Main St,Haverhill,Essex,MA,1830,34.5,42.4,RFS337595,-71.077517462068,42.780323829969,38.45
2000 Boston Food Court Inc,Full-Service Restaurants,722511,2000 Boston Rd,Wilbraham,Hampden,MA,1095,2.879877,13.568,RFS110086,-72.476624953678,42.149135258143,8.2239385
24 Broad Street Inc,Full-Service Restaurants,722511,24 Broad St,Nantucket,Nantucket,MA,2554,31.8687765,94.976,RFS132005,-70.099687576104,41.285077502127,63.42238825
246 Community Kitchen Inc,Full-Service Restaurants,722511,246 Main St,Wellfleet,Barnstable,MA,2667,0.346104,10.176,RFS135207,-70.029848209313,41.938613017805,5.261052
"255 Southampton Street, LLC",Full-Service Restaurants,722511,225 Southampton St,Roxbury,Suffolk,MA,2118,14.6184555,18.656,RFS126002,-71.065603107723,42.331148208052,16.63722775
"2nd Meal Catering, LLC",Caterers,722320,17 Twomey CT APT 56,Boston,Suffolk,MA,2127,1.5834555,11.872,RFS6191,-71.025883535412,42.333918304887,6.72772775
3 Country Bistro,Full-Service Restaurants,722511,379 Main St,Woburn,Middlesex,MA,1801,47.360346,71.232,RFS179227,-71.1519051817,42.479911758277,59.296173
"3 J'S Yogurt, Inc.",Limited-Service Restaurants,722513,66 Fairfield Cir,Norwood,Norfolk,MA,2062,4.4340615,10.5,RFS420396,-71.177599601541,42.175125749921,7.46703075
3 Squares,Full-Service Restaurants,722511,669 Highland Ave,Needham,Norfolk,MA,2494,3.9790575,16.96,RFS240266,-71.231502885884,42.299028017377,10.46952875
3 Squares Cooking,Full-Service Restaurants,722511,6 Joyce St,Webster,Worcester,MA,1570,3.4118205,15.264,RFS227391,-71.876031036742,42.046390002597,9.33791025
30 Traveler LLC,Full-Service Restaurants,722511,360 Harrison Ave,Boston,Suffolk,MA,2118,61.875,88.192,RFS174930,-71.063781362568,42.344856484833,75.0335
310 Diner LLC,Full-Service Restaurants,722511,310 Pleasant St,Leicester,Worcester,MA,1524,1.4395095,1.4395095,RFS158807,-71.90800036856,42.233003455434,1.4395095
"32 Somers Road, LLC",Full-Service Restaurants,722511,35 North St,Hingham,Plymouth,MA,2043,4.722795,19.5,RFS172209,-70.885767857076,42.243775249351,12.1113975
348 Congress LLC,Full-Service Restaurants,722511,348 Congress St,Boston,Suffolk,MA,2210,11.167431,33.92,RFS171770,-71.048641516649,42.350546556409,22.5437155
"369 Main Street, Inc.",Limited-Service Restaurants,722513,369 Main St,Agawam,Hampden,MA,1001,6.246339,10.5,RFS380933,-72.615100894824,42.080945264014,8.3731695
3rd Alarm Wood Fire Pizza,Limited-Service Restaurants,722513,8 Flash Rd,Nahant,Essex,MA,1908,8.580396,12,RFS432813,-70.934682454842,42.423562919984,10.290198
"40-58 Main Street Peabody, LLC",Caterers,722320,40 Main St,Florence,Hampshire,MA,1062,16.6945185,27.136,RFS14654,-72.669070637755,42.334926948506,21.91525925
413 Bistro LLC,Full-Service Restaurants,722511,11 E Hoosac St,Adams,Berkshire,MA,1220,1.4395095,1.4395095,RFS41626,-73.111853091211,42.625058094343,1.4395095
"415 Whiting, Inc.",Full-Service Restaurants,722511,415 Whiting St,Hingham,Plymouth,MA,2043,16.959096,28.832,RFS190245,-70.916906723294,42.19246988601,22.895548
419 Burnside RI LLC,Full-Service Restaurants,722511,528 Chestnut St,Franklin,Norfolk,MA,2038,19.6277235,32.224,RFS215960,-71.374465424668,42.09488051797,25.92586175
"425 Broadway, LLC",Full-Service Restaurants,722511,425 W Broadway,Boston,Suffolk,MA,2127,27.5698995,101.76,RFS193116,-71.047439505667,42.336527029715,64.66494975
429 Sandwich LLC,Limited-Service Restaurants,722513,22 Whiting St,Plymouth,Plymouth,MA,2360,10.973523,16.5,RFS346088,-70.657649614877,41.95097726822,13.7367615
"45 Province Restaurant, LLC",Full-Service Restaurants,722511,575 Boylston St,Boston,Suffolk,MA,2116,4.6299,20.352,RFS223928,-71.076668834952,42.350336043886,12.49095
45 Surfside Cafe Inc,Full-Service Restaurants,722511,45 Surfside Rd,Nantucket,Nantucket,MA,2554,27.6,73.1924325,RFS198646,-70.100368558932,41.266844541477,50.39621625
468 Shivam LLC,Full-Service Restaurants,722511,423 Eastern Ave,Lynn,Essex,MA,1902,8.580396,13.568,RFS192512,-70.933601248686,42.479306943612,11.074198
483 West Housatonic Street LLC,Limited-Service Restaurants,722513,483 W Housatonic St,Pittsfield,Berkshire,MA,1201,11.2600125,16.5,RFS398595,-73.275985361783,42.442737886952,13.88000625
484 Red Robin Gourmet Bur,Full-Service Restaurants,722511,2421 Cranberry Hwy,Wareham,Plymouth,MA,2571,1.4395095,11.872,RFS133747,-70.741915027525,41.777927101742,6.65575475
4a Coffee Company,Limited-Service Restaurants,722513,419 Harvard St,Brookline,Norfolk,MA,2446,4.290957,4.290957,RFS389843,-71.127070149792,42.345430189111,4.290957
"5 & Diner of North America, LLC",Full-Service Restaurants,722511,24 Main St,Maynard,Middlesex,MA,1754,1.4395095,10.5,RFS132100,-71.450990109501,42.432601292913,5.96975475
5 Stars Restaurant Group Inc.,Full-Service Restaurants,722511,1138 Worcester Rd,Framingham,Middlesex,MA,1702,2.8580805,2.8580805,RFS47928,-71.444113802571,42.298903739094,2.8580805
50 50 Diner,Full-Service Restaurants,722511,440 River St,Fitchburg,Worcester,MA,1420,4.2474465,22.048,RFS196394,-71.822919618327,42.58108895596,13.14772325
50 S Diner,Full-Service Restaurants,722511,363 Burnett Rd,Chicopee,Hampden,MA,1020,1.2215445,1.2215445,RFS175968,-72.544538218274,42.166974151082,1.2215445
"505 Congress Street, LLC",Full-Service Restaurants,722511,505 Congress St,Boston,Suffolk,MA,2210,19.934244,25.44,RFS210444,-71.041562995558,42.34853530879,22.687122
50kitchen,Full-Service Restaurants,722511,228 Washington St,Westwood,Norfolk,MA,2090,1.3817595,8.48,RFS127164,-71.187638858463,42.221100492622,4.93087975
528 Cafe,Full-Service Restaurants,722511,240 Stockbridge Rd,Great Barrington,Berkshire,MA,1230,4.172487,4.172487,RFS132410,-73.346298378176,42.206790709935,4.172487
538 Main Street Grille Incorporated,Full-Service Restaurants,722511,538 Main St,Fiskdale,Worcester,MA,1518,8.6075055,15.264,RFS217836,-72.111728273333,42.115944386272,11.93575275
"55 Boston Post Road, LLC",Full-Service Restaurants,722511,54 Canal St Ste 310,Boston,Suffolk,MA,2114,14.6184555,18.656,RFS217979,-71.060302621188,42.364623412159,16.63722775
559 Route 6a Yarmouthport LLC,Limited-Service Restaurants,722513,559 Route 6a,Yarmouth Port,Barnstable,MA,2675,1.1433015,4.5,RFS408983,-70.219907876487,41.704883161431,2.82165075
569 Tremont Inc,Full-Service Restaurants,722511,569 Tremont St,Boston,Suffolk,MA,2118,18.605301,23.744,RFS222945,-71.072294137742,42.343684818985,21.1746505
"595 Cafe, Inc.",Full-Service Restaurants,722511,595 Summer St,Lynn,Essex,MA,1905,1.796025,8.48,RFS226821,-70.972207571665,42.45799936045,5.1380125
5guys N Dartmouth,Limited-Service Restaurants,722513,85 D Old Faunce Cor,North Dartmouth,Bristol,MA,2747,5.5272855,42,RFS438066,-70.988533506667,41.646333159321,23.76364275
60 OLD SALT LLC,Full-Service Restaurants,722511,53 Brush Hill Rd,Sherborn,Middlesex,MA,1770,12.4038915,18.656,RFS216201,-71.401711418669,42.254025328447,15.52994575
600 Rogers Street Lowell LLC,Limited-Service Restaurants,722513,600 Rogers St,Lowell,Middlesex,MA,1852,14.6591445,19.5,RFS413272,-71.283337044115,42.631429783933,17.07957225
7 Pond Coffee Bar,Limited-Service Restaurants,722513,7 Pond St,Jamaica Plain,Suffolk,MA,2130,9.976,12,RFS423521,-71.114403442596,42.314770443749,10.988
7 Strong,Full-Service Restaurants,722511,7 Strong Ave,Northampton,Hampshire,MA,1060,1.4395095,11.872,RFS244231,-72.628674930665,42.319986502612,6.65575475
745 Comellas LLC,Full-Service Restaurants,722511,14 Mica Ln Ste 11,Wellesley,Norfolk,MA,2481,16.528611,27.136,RFS71895,-71.259900101956,42.325341204454,21.8323055
"766 Memorial Drive, LLC",Full-Service Restaurants,722511,171 Atwater Rd,Springfield,Hampden,MA,1107,3.213474,16.96,RFS94084,-72.602807193849,42.129621068957,10.086737
"77 Washington Street Ale House, LLC",Full-Service Restaurants,722511,77 Washington St,Haverhill,Essex,MA,1832,2.73999,13.568,RFS255606,-71.084666767774,42.77312452382,8.153995
77 Water St Corp,Full-Service Restaurants,722511,77 Water St,Woods Hole,Barnstable,MA,2543,9.6325845,25.44,RFS255607,-70.670616777508,41.524516180637,17.53629225
7813542077,Caterers,722320,158 Adams St,Newton,Middlesex,MA,2458,4.455,8.48,RFS5530,-71.201298706263,42.359291889392,6.4675
79 Caribbean and American Restaurant,Full-Service Restaurants,722511,158 Montello St,Brockton,Plymouth,MA,2301,7.980753,13.568,RFS85774,-71.017153739371,42.082674911289,10.7743765
79 HK Eatery LLC,Full-Service Restaurants,722511,79 Harrison Ave,Boston,Suffolk,MA,2111,1.4395095,11.872,RFS257693,-71.061412666288,42.351133279027,6.65575475
7-Eleven,Full-Service Restaurants,722511,494 Bridge St,Lowell,Middlesex,MA,1850,1.4395095,11.872,RFS206831,-71.303272865121,42.651378832498,6.65575475
"7th Wave, Inc.",Full-Service Restaurants,722511,7 Tuna Wharf,Rockport,Essex,MA,1966,8.580396,13.568,RFS244251,-70.61526547443,42.659990465069,11.074198
8 Essex Center Drive L L C,Limited-Service Restaurants,722513,565 Turnpike St Ste 80,North Andover,Essex,MA,1845,,,RFS409678,-71.114991055119,42.66514709474,
82 Grill,Limited-Service Restaurants,722513,39 Chapin Hall Dr,Williamstown,Berkshire,MA,1267,10.2363855,15,RFS383795,-73.20409484627,42.713703929144,12.61819275
85 East Central Street L L C,Full-Service Restaurants,722511,85 E Central St,Natick,Middlesex,MA,1760,2.1769605,10.176,RFS266934,-71.339397543508,42.28539706852,6.17648025
88 Bistro,Full-Service Restaurants,722511,172 Gore Rd,Webster,Worcester,MA,1570,21.040602,37.312,RFS94842,-71.84183158786,42.055993488221,29.176301
88 Chinese Restaurant,Full-Service Restaurants,722511,1351 Washington St,Newton,Middlesex,MA,2465,1.6119675,5.088,RFS69070,-71.228872724424,42.34875170145,3.34998375
88 Fin.,Full-Service Restaurants,722511,358 Washington St,Winchester,Middlesex,MA,1890,11.276265,16.96,RFS174500,-71.128129867806,42.460858893591,14.1181325
9 Bangs Number 2 LLC,Full-Service Restaurants,722511,256 Pearl St,Cambridge,Middlesex,MA,2139,1.4395095,11.872,RFS139538,-71.109300209592,42.358432473734,6.65575475
906 Homwin Chinese Restaurant,Full-Service Restaurants,722511,906 Boston Rd,Springfield,Hampden,MA,1119,9.815685,18.656,RFS273485,-72.514374677629,42.137789471514,14.2358425
"99 Boston, Inc.",Full-Service Restaurants,722511,233 Broad St,Bridgewater,Plymouth,MA,2324,71.079,85.5,RFS129752,-70.972505524642,41.99691314291,78.2895
"99 Boston, Inc.",Full-Service Restaurants,722511,267 Chickering Rd,North Andover,Essex,MA,1845,82.8,101.76,RFS143124,-71.121942714,42.68624698179,92.28
"99 Boston, Inc.",Full-Service Restaurants,722511,3013 Cranberry Hwy,Wareham,Plymouth,MA,2571,69,84.8,RFS155251,-70.660943139285,41.758575834238,76.9
"99 Boston, Inc.",Full-Service Restaurants,722511,317 Salem St,Lynnfield,Essex,MA,1940,82.8,101.76,RFS161783,-71.023574500329,42.512345528507,92.28
"99 Boston, Inc.",Full-Service Restaurants,722511,34 Sconticut Neck Rd,Fairhaven,Bristol,MA,2719,55.2,67.84,RFS169376,-70.881375355006,41.63899586584,61.52
"99 Boston, Inc.",Full-Service Restaurants,722511,60 Commonwealth Ave,Danvers,Essex,MA,1923,69,84.8,RFS227619,-70.944007405308,42.55230113921,76.9
"99 Boston, Inc.",Full-Service Restaurants,722511,659 Worcester Rd,Framingham,Middlesex,MA,1701,12.42,15.264,RFS238975,-71.42489241061,42.2985792904,13.842
"99 Boston, Inc.",Full-Service Restaurants,722511,669 Merrill Rd,Pittsfield,Berkshire,MA,1201,11.04,13.568,RFS240275,-73.205251853236,42.465612575107,12.304
"99 Boston, Inc.",Full-Service Restaurants,722511,121 VFW Pkwy,Revere,Suffolk,MA,2151,60.72,74.624,RFS56021,-70.996923849966,42.411157386621,67.672
"99 Boston, Inc.",Full-Service Restaurants,722511,14a Gill St,Woburn,Middlesex,MA,1801,15.18,18.656,RFS79314,-71.147008260825,42.509607540493,16.918
99 Restaurants,Full-Service Restaurants,722511,342 E Main St,Westfield,Hampden,MA,1085,1.5834555,11.872,RFS170353,-72.72361392212,42.113476574889,6.72772775
A & A Restaurant Supply Inc,Full-Service Restaurants,722511,1395 N Hixville Rd,Dartmouth,Bristol,MA,2747,1.7584215,1.7584215,RFS71626,-71.036281222366,41.692823781308,1.7584215
"A & A Restaurants, Inc.",Limited-Service Restaurants,722513,33 Mariano Bishop Blvd,Fall River,Bristol,MA,2721,17.1007485,17.1007485,RFS374032,-71.162440801727,41.675936218267,17.1007485
"A & C Stone, Inc.",Full-Service Restaurants,722511,225 Main St,Wilmington,Middlesex,MA,1887,3.836646,18.656,RFS125928,-71.181078064659,42.556110653254,11.246323
"A & J Cafe, Inc.",Full-Service Restaurants,722511,295 Rantoul St,Beverly,Essex,MA,1915,2.4392445,11.872,RFS151971,-70.883080703807,42.550912464051,7.15562225
A & J Restaurant Corp,Full-Service Restaurants,722511,560 Kelley Blvd Ste 4,North Attleboro,Bristol,MA,2760,3.9297225,3.9297225,RFS221624,-71.301962790623,42.007041787132,3.9297225
A & M Restaurant Inc,Full-Service Restaurants,722511,63 Cabot St,Newton,Middlesex,MA,2458,2.9427915,27.136,RFS234600,-71.192340030877,42.347480037751,15.03939575
A & N Restaurant Group Inc,Full-Service Restaurants,722511,294 Court St,Plymouth,Plymouth,MA,2360,9.975933,16.96,RFS151705,-70.683135733053,41.972445827127,13.4679665
A & R. Sporty's Catering,Caterers,722320,241 Millbury Ave,Millbury,Worcester,MA,1527,6.6947265,11.872,RFS9953,-71.756221927597,42.217112171676,9.28336325
A 1 Pizza House,Limited-Service Restaurants,722513,92 Maple St,Florence,Hampshire,MA,1062,1.6005,1.6005,RFS443466,-72.6720569911,42.335243339607,1.6005
A 4 Pizza,Limited-Service Restaurants,722513,500 Technology Sq FL 4,Cambridge,Middlesex,MA,2139,3.9197235,18,RFS400894,-71.09119887674,42.363418519435,10.95986175
A A M M Inc,Full-Service Restaurants,722511,182 Old Town House Rd,West Yarmouth,Barnstable,MA,2673,9.989265,9.989265,RFS100316,-70.221217682814,41.684176534408,9.989265
A and A House Keeping and Catering,Caterers,722320,42 Fox St,Dorchester,Suffolk,MA,2122,1.4395095,11.872,RFS15355,-71.063901559445,42.30616154184,6.65575475
A and E Restaurant Corp.,Limited-Service Restaurants,722513,494 Westford St,Lowell,Middlesex,MA,1851,5.56875,25.5,RFS399716,-71.333587633721,42.634129543899,15.534375
A and T Vcuisine Inc.,Full-Service Restaurants,722511,512 Elm St,Braintree,Norfolk,MA,2184,1.056,1.5,RFS212480,-70.989409935798,42.227612265925,1.278
A Brasileria Cafe,Full-Service Restaurants,722511,225 Iyannough Rd,Hyannis,Barnstable,MA,2601,15.18,18.656,RFS125918,-70.278048807334,41.66085703396,16.918
A C Milan Corp,Full-Service Restaurants,722511,260 Washington St,North Easton,Bristol,MA,2356,2.5353075,11.872,RFS140720,-71.087366638902,42.069704040358,7.20365375
A Chick-A-Fill,Limited-Service Restaurants,722513,1100 Fall River Ave,Seekonk,Bristol,MA,2771,1.5834555,12,RFS294539,-71.326930312505,41.793447151846,6.79172775
"A Day To Remember, LLC",Caterers,722320,4 1/2 Hawthorne Ave,Methuen,Essex,MA,1844,15.015693,23.744,RFS14596,-71.193535120208,42.721533738441,19.3798465
A Dogs' Tail Inc,Limited-Service Restaurants,722513,2 Route 130,Forestdale,Barnstable,MA,2644,1.392996,6,RFS337070,-70.509554049125,41.676276435374,3.696498
A Dong Pho,Full-Service Restaurants,722511,379 Belmont St,Brockton,Plymouth,MA,2301,2.8498965,13.568,RFS179213,-71.03565199909,42.077152438739,8.20894825
"A Family Feast, Inc.",Caterers,722320,39 Freeman Dr,Plymouth,Plymouth,MA,2360,0.7826115,1.696,RFS14412,-70.586471964894,41.825132181293,1.23930575
A Fresh Endeavor,Caterers,722320,21 Felton St,Woburn,Middlesex,MA,1801,9.021012,13.568,RFS8394,-71.125581039756,42.487202632519,11.294506
A J S Pub,Full-Service Restaurants,722511,411 W Main St,Northborough,Worcester,MA,1532,1.587993,1.587993,RFS188917,-71.668353742285,42.305286597389,1.587993
A M L & Sons Inc,Limited-Service Restaurants,722513,1633 Bay St,Springfield,Hampden,MA,1109,2.449491,2.449491,RFS324730,-72.529227770791,42.129677498915,2.449491
A Pereira Subway LLC,Limited-Service Restaurants,722513,1775 Washington St,Hanover,Plymouth,MA,2339,14.9638995,22.5,RFS329825,-70.845293681584,42.147416760455,18.73194975
A Perfect Taste,Caterers,722320,530 Washington St,Stoughton,Norfolk,MA,2072,4.504698,18.656,RFS17680,-71.101658929706,42.13151314279,11.580349
A S Convenience,Limited-Service Restaurants,722513,17 Cross St,North Attleboro,Bristol,MA,2760,1.786224,7.5,RFS326689,-71.327712369414,41.99163871847,4.643112
A Slice of Heaven,Limited-Service Restaurants,722513,2605 Cranberry Hwy,Wareham,Plymouth,MA,2571,2.057253,2.057253,RFS357883,-70.716937631785,41.769111601747,2.057253
A Taste of Vietnam,Full-Service Restaurants,722511,814 N Main St Ste 3,Leominster,Worcester,MA,1453,0.9732525,1.696,RFS262234,-71.772200862182,42.557459870418,1.33462625
A Tasteful Event Catering,Caterers,722320,769 Bedford St,Whitman,Plymouth,MA,2382,1.741806,13.568,RFS21427,-70.94715436069,42.081490112921,7.654903
A Tavola,Full-Service Restaurants,722511,34 Church St,Winchester,Middlesex,MA,1890,2.1837915,13.568,RFS169262,-71.139382716432,42.451107582684,7.87589575
"A Time, LLC",Full-Service Restaurants,722511,433 Cambridge St,Allston,Suffolk,MA,2134,21.2632035,27.136,RFS194984,-71.133984074534,42.35507709361,24.19960175
A&D Dining Inc,Full-Service Restaurants,722511,34 Lyman St,Westborough,Worcester,MA,1581,1.5834555,13.568,RFS169309,-71.607685521881,42.28408460232,7.57572775
"A.C.K. Pizza, Inc.",Limited-Service Restaurants,722513,15 Bassin Ln,Scituate,Plymouth,MA,2066,8.978343,13.5,RFS318185,-70.719219271756,42.182388130317,11.2391715
A-1 Deli Inc,Full-Service Restaurants,722511,92 Merrimack St,Haverhill,Essex,MA,1830,13.6043655,33.92,RFS275458,-71.078455588891,42.774570660882,23.76218275
A1 Pizza,Limited-Service Restaurants,722513,92 Maple St,Northampton,Hampshire,MA,1062,1.6005,1.6005,RFS443467,-72.6720569911,42.335243339607,1.6005
A-1 Pizza Taunton LLC,Limited-Service Restaurants,722513,41 Tremont St,Taunton,Bristol,MA,2780,8.100345,13.5,RFS388175,-71.103818216594,41.904618462928,10.8001725
AA Crispy Chicken Inc,Limited-Service Restaurants,722513,20 Kneeland St,Boston,Suffolk,MA,2111,1.9211115,1.9211115,RFS337279,-71.062113387514,42.350851965144,1.9211115
AAA Pizza Inc,Limited-Service Restaurants,722513,668 Washington St,Stoughton,Norfolk,MA,2072,1.4395095,10.5,RFS421054,-71.101879179389,42.127946724869,5.96975475
AAA TV of Wrentham,Limited-Service Restaurants,722513,4 Common St B,Wrentham,Norfolk,MA,2093,0.0825,0.0825,RFS385266,-71.328932394743,42.065772864939,0.0825
Aah Restaurant Company LLC,Full-Service Restaurants,722511,105 Lincoln Ave,Saugus,Essex,MA,1906,1.4395095,11.872,RFS36647,-70.991325931792,42.453665251601,6.65575475
Aamwal Inc,Limited-Service Restaurants,722513,169 Squire Rd,Revere,Suffolk,MA,2151,3.955314,3.955314,RFS326450,-71.009956003543,42.424077878763,3.955314
Abbotts Frozen Custard,Limited-Service Restaurants,722513,11 Hutchinson Rd,Lexington,Middlesex,MA,2421,9.021012,12,RFS293998,-71.220643842769,42.417187194609,10.510506
Abbotts Frozen Custard,Limited-Service Restaurants,722513,934 Great Plain Ave,Needham,Norfolk,MA,2492,2.6490585,15,RFS444630,-71.235260950725,42.28021955344,8.82452925
Abbott's Frozen Custard,Limited-Service Restaurants,722513,360 Washington St,Brighton,Suffolk,MA,2135,2.6696505,15,RFS379695,-71.15360195972,42.349089635934,8.83482525
"Abd Catering, LLC",Caterers,722320,22 Parkridge Rd,Haverhill,Essex,MA,1835,2.5573515,11.872,RFS8943,-71.116680660558,42.764022709314,7.21467575
"Abellard Restaurant Group, Inc.",Full-Service Restaurants,722511,336 Moody St,Waltham,Middlesex,MA,2453,15.786771,23.744,RFS168606,-71.23694309712,42.37067316003,19.7653855
"ABG Restaurant Group, Inc.",Full-Service Restaurants,722511,144 Market St,Lynn,Essex,MA,1901,2.324256,11.872,RFS76078,-70.947881573726,42.46243713207,7.098128
Abigails Restaurant,Full-Service Restaurants,722511,291 3rd St,Cambridge,Middlesex,MA,2142,18.042024,27.136,RFS150775,-71.082598399093,42.365536979321,22.589012
Above and Beyond Catering Inc,Caterers,722320,42a Plympton St,Boston,Suffolk,MA,2118,75.75018,75.75018,RFS15594,-71.068227994066,42.339088272667,75.75018
Above The Clouds Catering,Caterers,722320,13 Edenwood Ave,Billerica,Middlesex,MA,1821,1.946703,13.568,RFS3432,-71.287321048275,42.560350702323,7.7573515
A-Brews Tap and Grill,Limited-Service Restaurants,722513,1794 Bridge St,Dracut,Middlesex,MA,1826,1.818927,12,RFS330210,-71.310432076224,42.684480980116,6.9094635
Abruzzo Restaurant,Full-Service Restaurants,722511,2589 Boston Rd,Wilbraham,Hampden,MA,1095,4.3424205,18.656,RFS140094,-72.437297453339,42.148828960406,11.49921025
"Acapulco Mexican Restaurant, Inc.",Full-Service Restaurants,722511,238 5th St,Chelsea,Suffolk,MA,2150,2.924856,2.924856,RFS131517,-71.040866441745,42.399102487065,2.924856
Accu Pool Table Service,Full-Service Restaurants,722511,34 Shirley St,New Bedford,Bristol,MA,2746,9.000387,16.96,RFS169377,-70.945386453211,41.653441908607,12.9801935
"Acdm, LLC",Limited-Service Restaurants,722513,70 Plumtree Rd,Sunderland,Franklin,MA,1375,1.4395095,10.5,RFS423652,-72.550053353348,42.43175755106,5.96975475
Aceituna Cafe LLC,Full-Service Restaurants,722511,811 Boylston St Ste 3,Boston,Suffolk,MA,2116,13.2117975,13.2117975,RFS261685,-71.082095391999,42.348880703264,13.2117975
Acitron Cocina Mexicana,Full-Service Restaurants,722511,473 Massachusetts Ave,Arlington,Middlesex,MA,2474,6.4013895,18.656,RFS203393,-71.151518548017,42.414932795462,12.52869475
"Acl Restaurant, Inc",Full-Service Restaurants,722511,254 Brighton Ave,Allston,Suffolk,MA,2134,1.4395095,11.872,RFS138810,-71.136141134714,42.353353481719,6.65575475
"Acushnet Cafe, LLC",Full-Service Restaurants,722511,132 S Main St Ste A2,Acushnet,Bristol,MA,2743,1.4395095,11.872,RFS66387,-70.908471196775,41.678021599805,6.65575475
Adair Quirino,Limited-Service Restaurants,722513,55 Water St,Milford,Worcester,MA,1757,1.65,5.088,RFS407995,-71.529757414659,42.138136555194,3.369
Adalberto Gimenes,Limited-Service Restaurants,722513,23 Essex St,Saugus,Essex,MA,1906,11.7980445,16.5,RFS349312,-71.010739413907,42.448813970303,14.14902225
Adams Coney Frew American,Full-Service Restaurants,722511,5 Ware St,West Brookfield,Worcester,MA,1585,1.277001,1.696,RFS207911,-72.153500419186,42.233018475391,1.4865005
Adams Middle Cafeteria,"Cafeterias, Grill Buffets, and Buffets",722514,125 Savoy Rd,Cheshire,Berkshire,MA,1225,9.212742,15.264,RFS449119,-73.113619882271,42.589810863281,12.238371
Addie Lees Soul,Full-Service Restaurants,722511,596 Main St,Worcester,Worcester,MA,1608,2.668347,15.264,RFS226951,-71.804328473293,42.260405737155,8.9661735
Addis Cafe Inc,Full-Service Restaurants,722511,281 Cross St,Malden,Middlesex,MA,2148,4.510506,4.510506,RFS147835,-71.056590085619,42.423359498342,4.510506
Addis Red Sea Ethiopian Restaurant,Full-Service Restaurants,722511,1755 Massachusetts Ave,Cambridge,Middlesex,MA,2140,12.4038915,18.656,RFS96823,-71.119248163094,42.385005865428,15.52994575
Adea's Mediterranean Kitchen,Full-Service Restaurants,722511,90 Lafayette St,Salem,Essex,MA,1970,11.7980445,18.656,RFS271983,-70.89330524704,42.518584294903,15.22702225
Adea's Mediterranean Kitchen LLC,Full-Service Restaurants,722511,6 Norfolk Ave,Swampscott,Essex,MA,1907,1.5834555,13.568,RFS227458,-70.920285429654,42.471772907683,7.57572775
Adega Restaurant,Full-Service Restaurants,722511,229 Main St,Woburn,Middlesex,MA,1801,1.65,1.65,RFS127378,-71.149950788287,42.475691388921,1.65
Adirondack Smoke House Deli,Limited-Service Restaurants,722513,304 W River Rd,Uxbridge,Worcester,MA,1569,8.6075055,13.5,RFS367989,-71.613670480256,42.097517572352,11.05375275
Adjj Pizza Corp.,Limited-Service Restaurants,722513,437 Main St,Woburn,Middlesex,MA,1801,10.1486385,13.5,RFS392840,-71.150932506954,42.48103059131,11.82431925
Adolfo Capone,Limited-Service Restaurants,722513,232 California St,Newton,Middlesex,MA,2458,1.9774095,10.5,RFS350397,-71.197718075835,42.364729443076,6.23870475
Adolfo's Restaurant Inc.,Full-Service Restaurants,722511,254 Worthington St Ste 11,Springfield,Hampden,MA,1103,8.9233485,16.96,RFS138877,-72.591664608988,42.10486234432,12.94167425
Adriano Carvhallo,Limited-Service Restaurants,722513,132 Main St,Marlborough,Middlesex,MA,1752,6.9101835,6.9101835,RFS309878,-71.547611292706,42.346811478307,6.9101835
"Adriatic Group, LLC",Full-Service Restaurants,722511,155 Washington St,Salem,Essex,MA,1970,5.307522,22.048,RFS84360,-70.895356687774,42.520284794297,13.677761
Adriatic Restaurant Bar,Full-Service Restaurants,722511,503 Shirley St,Winthrop,Suffolk,MA,2152,15.9473985,20.352,RFS210052,-70.970668926994,42.372079429395,18.14969925
"Adtm, LLC",Full-Service Restaurants,722511,55 High St,Medford,Middlesex,MA,2155,21.42492,30.528,RFS219695,-71.111042973659,42.41865394349,25.97646
Aegean Flavors,Limited-Service Restaurants,722513,309 Lexington St,Auburndale,Middlesex,MA,2466,12.4038915,16.5,RFS369022,-71.24620955637,42.351590123546,14.45194575
Aegean Pizza,Limited-Service Restaurants,722513,30 Highland St,East Bridgewater,Plymouth,MA,2333,12.9687195,19.5,RFS365924,-70.951489412023,42.052274618129,16.23435975
Aero Coffee Roasters LLC,Limited-Service Restaurants,722513,318 Main St,Northborough,Worcester,MA,1532,1.4958075,5.088,RFS371409,-71.617105257107,42.328949356329,3.29190375
Affordable Catering,Caterers,722320,54 E Myrtle St,Orange,Franklin,MA,1364,7.3058535,7.3058535,RFS17827,-72.306224551971,42.584381653803,7.3058535
Affordable Elegance,Caterers,722320,22 Peirce St,Waltham,Middlesex,MA,2453,3.2922285,15.264,RFS8945,-71.22597398229,42.372721155331,9.27811425
"Afterburner, Inc.",Limited-Service Restaurants,722513,181 University Dr Ste D,Amherst,Hampshire,MA,1002,5.8932885,5.8932885,RFS331203,-72.533368267185,42.369888066795,5.8932885
Agaves Mexican Grill LLC,Limited-Service Restaurants,722513,389 Stockbridge Rd,Great Barrington,Berkshire,MA,1230,1.4395095,1.4395095,RFS383738,-73.345114602503,42.211900127916,1.4395095
Aghaby Vf Inc,Limited-Service Restaurants,722513,63 Main St Ste A,Blackstone,Worcester,MA,1504,2.5634235,2.5634235,RFS417424,-71.533319122782,42.018959146085,2.5634235
Agostino's Restaurant Inc,Full-Service Restaurants,722511,23 Washington St,Natick,Middlesex,MA,1760,1.5834555,1.5834555,RFS127856,-71.346337143125,42.285273282031,1.5834555
"Agua De Pau Restaurant, Inc.",Full-Service Restaurants,722511,396 Brock Ave,New Bedford,Bristol,MA,2744,1.5834555,11.872,RFS183165,-70.910029048977,41.604460023689,6.72772775
Ah Gin Wongs,Full-Service Restaurants,722511,210 W Main St Ste 1,Ayer,Middlesex,MA,1432,1.6901775,8.48,RFS116938,-71.602985166629,42.556239610918,5.08508875
Ai Inc Parlor,Full-Service Restaurants,722511,14 Lincoln Ave,Scituate,Plymouth,MA,2066,1.126983,6.784,RFS71868,-70.715912813499,42.173428213131,3.9554915
"Ai Limited, Inc.",Full-Service Restaurants,722511,1 South St,Bernardston,Franklin,MA,1337,4.5661605,4.5661605,RFS26982,-72.554395461045,42.671461958197,4.5661605
Aj Cafe,Full-Service Restaurants,722511,1 Richard Rd,Hudson,Middlesex,MA,1749,7.8933855,11.872,RFS26901,-71.57063653957,42.406413114869,9.88269275
Aji Japanese Restaurant & Sushi Bar,Full-Service Restaurants,722511,340 Walnut St,Newton,Middlesex,MA,2460,16.9143975,25.44,RFS169571,-71.206765807118,42.349353646368,21.17719875
AJS Pizza Inc,Limited-Service Restaurants,722513,836 Ashley Blvd,New Bedford,Bristol,MA,2745,2.6410065,10.5,RFS437145,-70.934022747544,41.683237506832,6.57050325
Akn Catering Inc,Caterers,722320,1706 South St,Bridgewater,Plymouth,MA,2324,1.4395095,11.872,RFS6261,-70.980208241022,41.94559097014,6.65575475
Al Dente Catering and Mexitalia,Full-Service Restaurants,722511,130 Maple St,Springfield,Hampden,MA,1103,12.0027105,20.352,RFS63848,-72.58003840817,42.100314855457,16.17735525
Al Dente Sportfishing LLC,Full-Service Restaurants,722511,69 Surfside Rd,Scituate,Plymouth,MA,2066,11.9711295,20.352,RFS242809,-70.756596224238,42.229342602719,16.16156475
Al Fadi Inc,Limited-Service Restaurants,722513,148 Granite St,Quincy,Norfolk,MA,2169,11.363418,16.5,RFS317621,-71.006643771444,42.245217544004,13.931709
Al Fresca Ristorante,Full-Service Restaurants,722511,1768 Main St Ste 1,Tewksbury,Middlesex,MA,1876,16.9143975,25.44,RFS97237,-71.209796319541,42.593446045331,21.17719875
Al Maidah Cuisine,Full-Service Restaurants,722511,184 Cambridge St,Burlington,Middlesex,MA,1803,12.4038915,18.656,RFS101381,-71.200456587327,42.510699103248,15.52994575
Aladdins,Limited-Service Restaurants,722513,4171 N Main St,Fall River,Bristol,MA,2720,3.9343425,16.5,RFS389684,-71.121420907636,41.752073736317,10.21717125
Alan Kwok,Full-Service Restaurants,722511,464 Hillside Ave,Needham,Norfolk,MA,2494,16.9143975,16.9143975,RFS201703,-71.237428513276,42.291160600513,16.9143975
Alba Deli Express,Limited-Service Restaurants,722513,1089 Hancock St,Quincy,Norfolk,MA,2169,3.414015,12,RFS293264,-71.006569552155,42.255348439924,7.7070075
Alba Menu,Full-Service Restaurants,722511,1486 Hancock St,Quincy,Norfolk,MA,2169,22.726836,37.312,RFS78771,-71.001717326255,42.248406571736,30.019418
Albert Dipasqua,Full-Service Restaurants,722511,94 Crimson Harvest Dr,Kingston,Plymouth,MA,2364,1.48467,10.176,RFS277785,-70.761431390924,41.973248721028,5.830335
Alberto's Pub & Pizza Inc,Limited-Service Restaurants,722513,55 Congress St,Braintree,Norfolk,MA,2184,8.2643055,12,RFS407880,-70.98893939049,42.201214685705,10.13215275
Alcoa Catering Service Inc,Full-Service Restaurants,722511,366 Chicopee St,Chicopee,Hampden,MA,1013,19.63137,19.63137,RFS176596,-72.623659695157,42.171174361386,19.63137
Alden & Harlow,Full-Service Restaurants,722511,40 Brattle St,Cambridge,Middlesex,MA,2138,6.7965975,28.832,RFS184020,-71.120888600815,42.37320153616,17.81429875
Alden Castle Corp.,Caterers,722320,20 Chapel St,Brookline,Norfolk,MA,2446,1.161105,3.392,RFS7721,-71.1110922955,42.34070989148,2.2765525
Alex Roast Beef and Pizza Inc.,Limited-Service Restaurants,722513,53 Main St,Topsfield,Essex,MA,1983,1.155,1.696,RFS405630,-70.950108980037,42.640410102554,1.4255
Alex S Roast Beef Pizza and Seafood,Limited-Service Restaurants,722513,53 Main St,Topsfield,Essex,MA,1983,3.321219,16.5,RFS405632,-70.950108980037,42.640410102554,9.9106095
Alex's Kitchen,Full-Service Restaurants,722511,107 Nichols Ave,Watertown,Middlesex,MA,2472,3.1742535,15.264,RFS38888,-71.160565825566,42.368511311496,9.21912675
Alfredos Italian Kitchen,Full-Service Restaurants,722511,243 Dorchester St,Boston,Suffolk,MA,2127,4.6403775,15.264,RFS134057,-71.052047409965,42.332267719328,9.95218875
Alfredos Italian Kitchen,"Cafeterias, Grill Buffets, and Buffets",722514,425 Lynnway,Lynn,Essex,MA,1905,6.435297,10.176,RFS449785,-70.953313652648,42.456506789742,8.3056485
Alfredos Italian Kitchen,Full-Service Restaurants,722511,126 W Emerson St,Melrose,Middlesex,MA,2176,4.2372,18.656,RFS61061,-71.06856469968,42.459016019899,11.4466
Alfresca Italian Restorante Inc,Full-Service Restaurants,722511,1768 Main St,Tewksbury,Middlesex,MA,1876,16.9143975,25.44,RFS97236,-71.209796319541,42.593446045331,21.17719875
Ali Baba Restaurant,Full-Service Restaurants,722511,145 E Berkeley St,Boston,Suffolk,MA,2118,1.66716,8.48,RFS76767,-71.064996915772,42.343616367605,5.07358
Ali Zone Inc,Full-Service Restaurants,722511,770 Main St,Springfield,Hampden,MA,1105,1.519287,8.48,RFS255632,-72.582034147051,42.096588255544,4.9996435
Alia Restaurant,Limited-Service Restaurants,722513,495 Shirley St,Winthrop,Suffolk,MA,2152,14.964,18,RFS399818,-70.970819978037,42.372247814203,16.482
Alina's Ristorante,Full-Service Restaurants,722511,96 Russell St,Hadley,Hampshire,MA,1035,1.4395095,11.872,RFS279955,-72.597348115769,42.3416290264,6.65575475
All American Ice Company LLC,Limited-Service Restaurants,722513,14 Pond St,Georgetown,Essex,MA,1833,23.1803385,67.84,RFS313372,-70.98987158394,42.727483515548,45.51016925
All Fired Up Catering,Caterers,722320,1079 East St,Dedham,Norfolk,MA,2026,0.5158725,1.696,RFS1240,-71.163552407074,42.226111875791,1.10593625
All Friends Catering,Caterers,722320,1595 Braley Rd,New Bedford,Bristol,MA,2745,2.1174285,10.176,RFS5591,-70.959461760821,41.733644245268,6.14671425
All Friends Smokehouse,Caterers,722320,549 American Legion Hwy,Westport,Bristol,MA,2790,4.974981,15.264,RFS17982,-71.093813517625,41.628350406858,10.1194905
All Season Table Restaurant,Full-Service Restaurants,722511,64 Pleasant St,Malden,Middlesex,MA,2148,1.4395095,11.872,RFS236240,-71.068885499569,42.42680059184,6.65575475
"All Seasons Services, Inc.",Full-Service Restaurants,722511,8 Kansas St,Natick,Middlesex,MA,1760,5.52,6.784,RFS258823,-71.359681073202,42.290969504159,6.152
All You Need Is Ice Cream,Limited-Service Restaurants,722513,345 Main St,Tewksbury,Middlesex,MA,1876,1.4395095,11.872,RFS377175,-71.259143514195,42.620452473901,6.65575475
Allegro Coffee Company,Limited-Service Restaurants,722513,100 Market St,Lynnfield,Essex,MA,1940,9.975933,16.96,RFS285179,-70.948713157801,42.462893507456,13.4679665
Allegro Coffee Company,Limited-Service Restaurants,722513,536 Boston Post Rd,Sudbury,Middlesex,MA,1776,6.235,7.5,RFS406493,-71.431248678443,42.360316812878,6.8675
Allison's Cafe LLC,Full-Service Restaurants,722511,25 Green St,Charlestown,Suffolk,MA,2129,1.4395095,11.872,RFS136281,-71.063485125041,42.376666183641,6.65575475
Allmar Enterprises Inc,Limited-Service Restaurants,722513,30 Upton St,Adams,Berkshire,MA,1220,3.5516085,7.5,RFS366010,-73.116556924394,42.632521199482,5.52580425
"Allo Allo Cafe, Inc.",Full-Service Restaurants,722511,242 Humphrey St,Swampscott,Essex,MA,1907,3.1744845,10.176,RFS133618,-70.914425113102,42.467224064687,6.67524225
Allora Pasta Co,Full-Service Restaurants,722511,10 Oregon Rd,Southborough,Worcester,MA,1772,7.651116,13.568,RFS27500,-71.51265028316,42.279215730654,10.609558
Allstar Pizza Bar,Limited-Service Restaurants,722513,1238 Cambridge St,Cambridge,Middlesex,MA,2139,24.8077995,33,RFS305026,-71.098042779587,42.373319543889,28.90389975
Allston Bbq LLC,Full-Service Restaurants,722511,182 Harvard Ave,Allston,Suffolk,MA,2134,1.4395095,1.4395095,RFS100300,-71.131343880241,42.351125700311,1.4395095
Allston Diner,Full-Service Restaurants,722511,139 Magazine St APT 2,Cambridge,Middlesex,MA,2139,10.1486385,15.264,RFS71317,-71.11189468178,42.358463963565,12.70631925
"Allston Restaurant, Inc.",Full-Service Restaurants,722511,184 Brighton Ave,Allston,Suffolk,MA,2134,23.921106,30.528,RFS101378,-71.133705674331,42.353094722851,27.224553
"Allston Sky, Inc.",Full-Service Restaurants,722511,66 Brighton Ave,Allston,Suffolk,MA,2134,1.610037,10.176,RFS239020,-71.128207264341,42.352430053816,5.8930185
Almeida's Country Cafe,Full-Service Restaurants,722511,20 Carver St,Granby,Hampshire,MA,1033,1.4395095,11.872,RFS108995,-72.492040155381,42.226304789104,6.65575475
Almonte Mini Market Deli LLC,Limited-Service Restaurants,722513,47 Meeting House Rd,Chicopee,Hampden,MA,1013,8.9233485,15,RFS396930,-72.621533991511,42.167245246271,11.96167425
Alpamayo Peruvian Cuisine,Full-Service Restaurants,722511,60 Main St,Lee,Berkshire,MA,1238,1.221,1.221,RFS227705,-73.249389677865,42.305657938191,1.221
"Alpamayo Restaurant, Inc.",Full-Service Restaurants,722511,60 Main St Ste 2,Lee,Berkshire,MA,1238,3.6795,13.568,RFS227709,-73.249389677865,42.305657938191,8.62375
Alra Corporation,Limited-Service Restaurants,722513,27 Marcus Rd,Sharon,Norfolk,MA,2067,12.39645,15,RFS359656,-71.136209343543,42.111807245138,13.698225
Alrabee LLC Sam Way Pizza,Limited-Service Restaurants,722513,67 Pond St,Ashland,Middlesex,MA,1721,12.4038915,16.5,RFS421179,-71.427444254347,42.255736129325,14.45194575
Als Cafe Inc,Full-Service Restaurants,722511,577 Belleville Ave,New Bedford,Bristol,MA,2745,7.1411505,7.1411505,RFS224216,-70.921364309614,41.667749507895,7.1411505
"Al's South Street Cafe, Inc.",Full-Service Restaurants,722511,179 Essex St,Boston,Suffolk,MA,2111,11.960553,15.264,RFS98018,-71.058726168999,42.352393308713,13.6122765
Alta Beira Restaurant Inc,Full-Service Restaurants,722511,826 Plymouth Ave,Fall River,Bristol,MA,2721,2.805,2.805,RFS264156,-71.157925130801,41.69134212785,2.805
Alta Strada-Mosaic LLC,Full-Service Restaurants,722511,20 Park Plz Ste 416,Boston,Suffolk,MA,2116,45.1843095,57.664,RFS109208,-71.068841202226,42.351556497588,51.42415475
Altea's Eatery,Full-Service Restaurants,722511,259 Park Ave,Worcester,Worcester,MA,1609,1.5834555,13.568,RFS140151,-71.819361483458,42.264097069165,7.57572775
Alumni Restaurant,Full-Service Restaurants,722511,391 E Central St Ste 8,Franklin,Norfolk,MA,2038,3.948549,15.264,RFS182085,-71.381300529348,42.080102007973,9.6062745
Aman Place,Full-Service Restaurants,722511,63 Union Sq,Somerville,Middlesex,MA,2143,6.9,8.48,RFS234684,-71.096306799011,42.37971497194,7.69
Amari Ristorante and Bar,Full-Service Restaurants,722511,674 Route 6a,East Sandwich,Barnstable,MA,2537,73.845717,73.845717,RFS241068,-70.399420190792,41.728482430018,73.845717
Amazing Hero Art LLC,Full-Service Restaurants,722511,5 Nadine Ln,North Andover,Essex,MA,1845,18.233358,28.832,RFS207749,-71.116224901507,42.661924877172,23.532679
Amazing Pizza,Limited-Service Restaurants,722513,102 Webb St,Salem,Essex,MA,1970,16.0882425,22.5,RFS288327,-70.887823512984,42.527448388615,19.29412125
Amazing Pizza LLC,Limited-Service Restaurants,722513,273 Cabot St,Beverly,Essex,MA,1915,1.4395095,10.5,RFS360663,-70.87798582853,42.550644460138,5.96975475
Amechi On Canal Cafe,Full-Service Restaurants,722511,50 Water St,Worcester,Worcester,MA,1604,5.2685325,5.2685325,RFS208261,-71.79487702901,42.257708829772,5.2685325
Amelia Casa Restaurant Corporation,Full-Service Restaurants,722511,183 Lewis St,Lynn,Essex,MA,1902,12.870594,20.352,RFS100918,-70.933143605815,42.465374685315,16.611297
Amelia's Taqueria IV Inc,Full-Service Restaurants,722511,44 Dorothy Rd,Newton,Middlesex,MA,2459,6.9,8.48,RFS196189,-71.186488641051,42.297827798175,7.69
Amelia's Taqueria IV Inc,Full-Service Restaurants,722511,1076 Boylston St,Boston,Suffolk,MA,2215,6.840768,6.840768,RFS39502,-71.088623908673,42.34700505659,6.840768
"Amelia's Trattoria II, LLC",Full-Service Restaurants,722511,111 Harvard St,Cambridge,Middlesex,MA,2139,3.898851,6.784,RFS44151,-71.09291013862,42.365034878008,5.3414255
America China Co. Edu Svc. Ctr,Full-Service Restaurants,722511,44 Franclaire Dr,West Roxbury,Suffolk,MA,2132,11.960553,15.264,RFS196207,-71.148869022179,42.275030225576,13.6122765
"American Cab, Inc.",Full-Service Restaurants,722511,1208 VFW Pkwy Ste 202,West Roxbury,Suffolk,MA,2132,1.5776805,11.872,RFS55649,-71.171129494578,42.279402498857,6.72484025
American Lobster Products,Full-Service Restaurants,722511,239 Boston St,Topsfield,Essex,MA,1983,17.1608085,27.136,RFS131762,-70.943139349786,42.633990277913,22.14840425
American Restaurant Management,Limited-Service Restaurants,722513,11 S Bridge Dr,Agawam,Hampden,MA,1001,4.93812,18,RFS294076,-72.588190618877,42.081886791085,11.46906
"Amesbury Hospitality, LLC",Full-Service Restaurants,722511,284 Elm St,Amesbury,Essex,MA,1913,15.015693,23.744,RFS148813,-70.907189841958,42.847361711547,19.3798465
Amherst Inn Company,Full-Service Restaurants,722511,30 Boltwood Ave,Amherst,Hampshire,MA,1002,33.0507705,101.76,RFS153145,-72.518852372786,42.374513930485,67.40538525
Amici Trattoria,Full-Service Restaurants,722511,7 Summer St,Chelmsford,Middlesex,MA,1824,5.9838735,5.9838735,RFS244234,-71.34798572489,42.59439348509,5.9838735
Amici's Pizzeria,Limited-Service Restaurants,722513,127 Waverley Rd,North Andover,Essex,MA,1845,4.7510595,4.7510595,RFS306797,-71.134968493312,42.700445062019,4.7510595
Amore Pizza,Limited-Service Restaurants,722513,414 Main St,Stoneham,Middlesex,MA,2180,50.7432255,67.5,RFS389161,-71.10020034092,42.478452790074,59.12161275
"Ampex Brands Pizza of Ne, Inc.",Limited-Service Restaurants,722513,155 Hope St,Fall River,Bristol,MA,2721,1.247,1.5,RFS321232,-71.166325864849,41.698720255001,1.3735
"Ampex Brands Pizza of Ne, Inc.",Limited-Service Restaurants,722513,62 W Main St,Spencer,Worcester,MA,1562,1.247,1.5,RFS416292,-72.017877494332,42.231756053069,1.3735
Amq Inc Freshens,Limited-Service Restaurants,722513,26 Paul St,Watertown,Middlesex,MA,2472,10.1486385,13.5,RFS357503,-71.171318805194,42.362412485724,11.82431925
Amrhein's Inc,Full-Service Restaurants,722511,80 W Broadway,Boston,Suffolk,MA,2127,28.05,67.84,RFS259171,-71.055421076926,42.341838223781,47.945
Amstel Enterprises,Full-Service Restaurants,722511,45 Wingate St,Haverhill,Essex,MA,1832,11.095425,27.136,RFS198682,-71.084858488259,42.773823833515,19.1157125
"Amsterdam Cafe, LLC",Full-Service Restaurants,722511,483 E Broadway Ste 1,Boston,Suffolk,MA,2127,3.7827075,16.96,RFS205111,-71.044574659819,42.335407324538,10.37135375
Amuse Catering / Loralai Moon Coastal CA,Full-Service Restaurants,722511,77 School St,Melrose,Middlesex,MA,2176,9.021012,13.568,RFS255587,-71.052640996548,42.461307448184,11.294506
An Nam Vietnamese Grill,Limited-Service Restaurants,722513,6 Standish St,Worcester,Worcester,MA,1604,9.5639115,15,RFS412891,-71.776873520666,42.255819892932,12.28195575
Anacone Restaurant Co LLC,Full-Service Restaurants,722511,1354 Hancock St,Quincy,Norfolk,MA,2169,1.4395095,11.872,RFS69205,-71.002702785941,42.250555115365,6.65575475
"Anacone Restaurant Co., LLC",Full-Service Restaurants,722511,308 Shirley St,Winthrop,Suffolk,MA,2152,2.5072905,11.872,RFS157953,-70.97409955656,42.376721948949,7.18964525
Anchor Stone Deck Pizza,Limited-Service Restaurants,722513,44 State St,Newburyport,Essex,MA,1950,2.6977665,12,RFS393145,-70.870244955619,42.810132456872,7.34888325
"and Go Concepts, LLC",Full-Service Restaurants,722511,20 Sherwood Rd,Reading,Middlesex,MA,1867,91.08,111.936,RFS109268,-71.117697456418,42.509367031252,101.508
Andalus Pizza & Cafe,Limited-Service Restaurants,722513,153 Sutherland Rd,Brighton,Suffolk,MA,2135,3.181827,13.5,RFS320499,-71.147303226643,42.340769759114,8.3409135
Andiamo Restaurant & Bar,Full-Service Restaurants,722511,24 Winter St,Newburyport,Essex,MA,1950,4.081704,15.264,RFS132234,-70.876506172332,42.811204718607,9.672852
Andina Cafes Inc,Full-Service Restaurants,722511,2 Central St,Framingham,Middlesex,MA,1701,1.5834555,1.5834555,RFS108497,-71.400004388872,42.325157823858,1.5834555
Andinos Pizzaria,Limited-Service Restaurants,722513,64 Washington St,Haverhill,Essex,MA,1832,2.686596,13.5,RFS418542,-71.084337145535,42.77310706665,8.093298
Andolinis Restaurant,Full-Service Restaurants,722511,19 Essex St,Andover,Essex,MA,1810,1.38,4.29,RFS103693,-71.142240547627,42.656676377056,2.835
Andover Deli and Pizza,Limited-Service Restaurants,722513,22 Andover St,Andover,Essex,MA,1810,9.6529455,13.5,RFS345930,-71.153509766172,42.644972781157,11.57647275
"Andover Mexican Restaurant, Inc.",Full-Service Restaurants,722511,10 Main St Ste 12,Andover,Essex,MA,1810,5.0310975,5.0310975,RFS27404,-71.140416408659,42.656470806902,5.0310975
"Andrade Subway, Corp.",Limited-Service Restaurants,722513,921 Montgomery St,Fall River,Bristol,MA,2720,7.200303,12,RFS443685,-71.124150402949,41.722913887201,9.6001515
Andrea's Restaurant,Full-Service Restaurants,722511,1880 Main St,Tewksbury,Middlesex,MA,1876,12.4038915,18.656,RFS103045,-71.206080861781,42.591255613643,15.52994575
Andres Catering,Caterers,722320,13 Scammell St,Quincy,Norfolk,MA,2169,7.231257,11.872,RFS3447,-70.995376998902,42.243014237001,9.5516285
Andre's On The Common Inc,Full-Service Restaurants,722511,5 E Walnut St,Belchertown,Hampshire,MA,1007,9.6461805,22.048,RFS207630,-72.403166549691,42.279963649034,15.84709025
Andrew Conroy,Full-Service Restaurants,722511,24 Parker St,Gardner,Worcester,MA,1440,2.592117,11.872,RFS132135,-71.995873831757,42.575964020749,7.2320585
Andrew Michael,Full-Service Restaurants,722511,2341 Boston Rd,Wilbraham,Hampden,MA,1095,3.341481,18.656,RFS130354,-72.459003307192,42.150763041258,10.9987405
Andrina's Pizzaria-Arlington,Limited-Service Restaurants,722513,1060 Massachusetts Ave,Arlington,Middlesex,MA,2476,1.5834555,12,RFS291604,-71.170547574013,42.420656930212,6.79172775
Andros Island Inc,Full-Service Restaurants,722511,368 Whitlow St,New Bedford,Bristol,MA,2746,8.25,40.704,RFS176919,-70.950984720248,41.656491237508,24.477
Andros Pizza LLC,Limited-Service Restaurants,722513,9 Washington St Ste 1,Franklin,Norfolk,MA,2038,8.2643055,12,RFS441202,-71.404082640771,42.074644863141,10.13215275
Andy's Diner,Full-Service Restaurants,722511,2030 Massachusetts Ave,Cambridge,Middlesex,MA,2140,0.9306495,0.9306495,RFS113031,-71.122125418514,42.390735284393,0.9306495
Anejo Mexican Bistro,Full-Service Restaurants,722511,188 Main St,Falmouth,Barnstable,MA,2540,33.12,40.704,RFS102994,-70.616839159832,41.552501708433,36.912
Angel CMC Inc,Full-Service Restaurants,722511,3698 Washington St,Jamaica Plain,Suffolk,MA,2130,7.2518325,25.44,RFS177100,-71.113070162537,42.300530716634,16.34591625
Angel Foods Catering,Caterers,722320,1631 Trapelo Rd,Waltham,Middlesex,MA,2451,1.4395095,11.872,RFS5891,-71.260919211072,42.416430111512,6.65575475
Angelas Cafe,Full-Service Restaurants,722511,131 Lexington St,Boston,Suffolk,MA,2128,19.934244,25.44,RFS65260,-71.034959055661,42.378610318176,22.687122
Angelinas,Full-Service Restaurants,722511,1866 Main St,Tewksbury,Middlesex,MA,1876,4.40451,20.352,RFS102587,-71.20667757431,42.591477546381,12.378255
Angelinas,Limited-Service Restaurants,722513,1350 Middlesex St,Lowell,Middlesex,MA,1851,12.4038915,16.5,RFS311535,-71.340280321325,42.638283166412,14.45194575
Angelina's Pizzaria,Limited-Service Restaurants,722513,419 Elm St,Braintree,Norfolk,MA,2184,3.3413325,15,RFS389836,-70.992324444158,42.226491227109,9.17066625
"Angelina's Submarine Base, Inc.",Limited-Service Restaurants,722513,100 Dalton Ave,Pittsfield,Berkshire,MA,1201,12.47,18.1175775,RFS284993,-73.228664128143,42.457521215074,15.29378875
Angelo's Coal Fired Pizza Kingston LLC,Limited-Service Restaurants,722513,72 Bluff Rd,Weymouth,Norfolk,MA,2191,1.4395095,10.5,RFS426394,-70.961795633778,42.240619415013,5.96975475
Angelo's Coal Fired Pizza LLC,Limited-Service Restaurants,722513,1657 Hancock St,Quincy,Norfolk,MA,2169,4.019235,15,RFS325578,-71.000340755716,42.245507927626,9.5096175
Angelo's Pizza,Limited-Service Restaurants,722513,1 Beaumont St,Canton,Norfolk,MA,2021,1.393227,9,RFS284085,-71.153166759705,42.163578128177,5.1966135
"Angelo's Pizza Chef, Inc.",Limited-Service Restaurants,722513,38 Ellis Dr,Worcester,Worcester,MA,1609,7.651116,12,RFS382421,-71.811589595903,42.231438191161,9.825558
"Angelo's Pizza, LLC",Limited-Service Restaurants,722513,18 Naomi St,Malden,Middlesex,MA,2148,10.1486385,13.5,RFS330407,-71.08715279069,42.433372494305,11.82431925
Angies Place LLC,Full-Service Restaurants,722511,135 West Ave,Great Barrington,Berkshire,MA,1230,1.4395095,11.872,RFS68885,-73.368654778298,42.187533392239,6.65575475
Angkor Restaurant Inc,Full-Service Restaurants,722511,45 Walker St,Lowell,Middlesex,MA,1854,45.54,55.968,RFS198668,-71.332569925991,42.645105735917,50.754
Anh Thu Restaurant,Full-Service Restaurants,722511,91 Stafford St Ste 4,Worcester,Worcester,MA,1603,12.43308,22.048,RFS274030,-71.843236099327,42.239630554717,17.24054
Ani Catering LLC,Caterers,722320,687 Belmont St,Belmont,Middlesex,MA,2478,4.0946235,4.0946235,RFS20206,-71.180334240924,42.380277889924,4.0946235
Ann & Fran's Kitchen,Full-Service Restaurants,722511,38 Stoney Hill Dr,South Yarmouth,Barnstable,MA,2664,11.04,13.568,RFS179427,-70.192169753411,41.698876502552,12.304
Ann & Shawn Minor,Full-Service Restaurants,722511,469 Bernardston Rd,Greenfield,Franklin,MA,1301,6.1875,45.792,RFS202315,-72.587322048128,42.608373926829,25.98975
Annapurna Inc.,Full-Service Restaurants,722511,2088 Massachusetts Ave,Cambridge,Middlesex,MA,2140,2.67762,2.67762,RFS115795,-71.123432562215,42.391330252983,2.67762
Anna's Cafe,Full-Service Restaurants,722511,35 Somerset Ave APT 3,Winthrop,Suffolk,MA,2152,10.6315935,13.568,RFS172266,-70.988160483774,42.374801137383,12.09979675
Annas Harborside Grill,Limited-Service Restaurants,722513,145 Water St,Plymouth,Plymouth,MA,2360,3.3693825,13.5,RFS316553,-70.667382468702,41.96106825517,8.43469125
Anna's Taqueria,Full-Service Restaurants,722511,27 Lincoln St,Newton,Middlesex,MA,2461,1.4395095,11.872,RFS143766,-71.207069680498,42.321617234844,6.65575475
Anne Queen Sub Parlor,Limited-Service Restaurants,722513,930 Turnpike St,Canton,Norfolk,MA,2021,2.7916845,7.5,RFS444357,-71.106375047288,42.155477690677,5.14584225
Annes Dairy Drive In,Limited-Service Restaurants,722513,1583 Old Keene Rd,Athol,Worcester,MA,1331,8.6835375,8.6835375,RFS322327,-72.220636971505,42.624422458889,8.6835375
"Annonciada, Inc.",Limited-Service Restaurants,722513,63 Sunset Ter,Feeding Hills,Hampden,MA,1030,1.247,1.8497655,RFS417449,-72.682213693514,42.064386693865,1.54838275
Ann's Cafeteria Inc,"Cafeterias, Grill Buffets, and Buffets",722514,117 Forest St,Saugus,Essex,MA,1906,4.9329885,16.96,RFS449077,-71.027575549652,42.477023660522,10.94649425
Anny Food and Services LLC,Full-Service Restaurants,722511,374 Front St,Marion,Plymouth,MA,2738,2.64,6.784,RFS178421,-70.771180409942,41.716181995789,4.712
"Another Cafe Fiorella, Inc.",Full-Service Restaurants,722511,187 North St,Newton,Middlesex,MA,2460,31.5735585,47.488,RFS102703,-71.218570155117,42.365153074883,39.53077925
Another Cup,Limited-Service Restaurants,722513,1 Nassau St,Boston,Suffolk,MA,2111,3.888192,13.5,RFS284354,-71.06309521231,42.348814339697,8.694096
"Another One Bites The Crust, LLC",Full-Service Restaurants,722511,55 Presidential Dr,Southborough,Worcester,MA,1772,2.597364,11.872,RFS219762,-71.544528773931,42.31884302506,7.234682
ANR Restaurants LLC,Full-Service Restaurants,722511,371 Main St,Woburn,Middlesex,MA,1801,18.705,22.5,RFS177735,-71.151942734668,42.479795639489,20.6025
ANR Restaurants LLC,Full-Service Restaurants,722511,517 Concord Ave,Cambridge,Middlesex,MA,2138,14.6591445,22.048,RFS213618,-71.141149582005,42.387028364778,18.35357225
Anthony Cirella,Limited-Service Restaurants,722513,4 Taunton Grn,Taunton,Bristol,MA,2780,7.293165,19.5,RFS385407,-71.094072306456,41.90111489876,13.3965825
"Anthony's Coal-Fired Pizza, LLC",Limited-Service Restaurants,722513,180 Needham St,Newton Upper Falls,Middlesex,MA,2464,1.247,1.5,RFS330545,-71.213197125083,42.311715254073,1.3735
"Anthony's Coal-Fired Pizza, LLC",Limited-Service Restaurants,722513,48 Walkers Brook Dr,Reading,Middlesex,MA,1867,1.247,1.5,RFS398085,-71.09472397884,42.519634609708,1.3735
Anthony's Functions Inc,Caterers,722320,156 Highland Ave Ste 4,Somerville,Middlesex,MA,2143,1.6235175,1.6235175,RFS5458,-71.103717386214,42.388450228063,1.6235175
Anthony's Italian Deli and Pasticceria,Full-Service Restaurants,722511,2 High St,Danvers,Essex,MA,1923,17.1608085,27.136,RFS108627,-70.93556344246,42.565413309303,22.14840425
Anthony's Italian Specialties,Limited-Service Restaurants,722513,408 Main St,Stoneham,Middlesex,MA,2180,1.741806,13.568,RFS387825,-71.100189933132,42.478539521609,7.654903
Anthonys On The Green,Caterers,722320,212 Prentice St,Holliston,Middlesex,MA,1746,2.6762505,13.568,RFS8600,-71.45463046044,42.203826182485,8.12212525
Anthony's Pier 4 Inc,Full-Service Restaurants,722511,140 Northern Ave,Boston,Suffolk,MA,2210,100.74,123.808,RFS72191,-71.043462113258,42.350857962384,112.274
Anthony's Pizza,Limited-Service Restaurants,722513,43 Gore St,Cambridge,Middlesex,MA,2141,10.1486385,13.5,RFS391682,-71.079600572945,42.371767283509,11.82431925
Anthonys Restaurant,Full-Service Restaurants,722511,22 Makepeace St,Saugus,Essex,MA,1906,2.3183325,20.352,RFS122357,-71.009883726203,42.45601439949,11.33516625
Anthony's Roast Beef,Limited-Service Restaurants,722513,1111 Riverside Dr,Methuen,Essex,MA,1844,3.1110585,3.1110585,RFS296035,-71.211938757204,42.70296645396,3.1110585
Anthony's Roast Beef & Pizza - Tewksbury,Limited-Service Restaurants,722513,1921 Main St,Tewksbury,Middlesex,MA,1876,1.9729545,5.088,RFS335045,-71.204415636562,42.590413797066,3.53047725
Antigua LLC,Full-Service Restaurants,722511,129 Oxford St,Lynn,Essex,MA,1901,15.015693,23.744,RFS62980,-70.946835048078,42.46375532316,19.3798465
Antojitos,Full-Service Restaurants,722511,665 Western Ave,Lynn,Essex,MA,1905,2.2286385,11.872,RFS239963,-70.963078010837,42.464737112112,7.05031925
Antojitos Chapines Restaurant,Full-Service Restaurants,722511,180 Union St,Lynn,Essex,MA,1901,12.870594,20.352,RFS98715,-70.941703695091,42.466733296582,16.611297
Antonella's,Full-Service Restaurants,722511,744 Broadway,Revere,Suffolk,MA,2151,11.960553,15.264,RFS252634,-71.008132587162,42.416572865155,13.6122765
Antonio Bacaro Restaurant,Full-Service Restaurants,722511,5 Fairmount Ave,Hyde Park,Suffolk,MA,2136,15.9473985,20.352,RFS207641,-71.120996846488,42.255554058838,18.14969925
Antonio Barone,Full-Service Restaurants,722511,219 Middlesex Ave,Medford,Middlesex,MA,2155,2.702337,5.088,RFS122005,-71.079565250025,42.410224631645,3.8951685
Antonio Martino,Limited-Service Restaurants,722513,1500 Main St,Springfield,Hampden,MA,1103,1.36092,3,RFS318687,-72.592477039254,42.103442627272,2.18046
Antonio Ospina,Limited-Service Restaurants,722513,60 Maverick St,Boston,Suffolk,MA,2128,14.964,18,RFS413007,-71.041103639027,42.371149301151,16.482
Antonio Petruzziello,Full-Service Restaurants,722511,47 Oscars Way,Dedham,Norfolk,MA,2026,1.741806,11.872,RFS202497,-71.170926442787,42.235328779809,6.806903
Antonio S Pizza,Limited-Service Restaurants,722513,71 Main St,Easthampton,Hampshire,MA,1027,4.728768,4.728768,RFS425195,-72.672332143081,42.270719781864,4.728768
Antonio Tavares,Mobile Food Services,722330,42 Bay View St,Quincy,Norfolk,MA,2169,0.378543,1.5,RFS25433,-70.983978754957,42.251047894838,0.9392715
Antonio's,Limited-Service Restaurants,722513,31 Federal St,Belchertown,Hampshire,MA,1007,1.5776805,1.5776805,RFS369195,-72.408577842151,42.290706210241,1.5776805
Aob Corp,Full-Service Restaurants,722511,108 L St,Boston,Suffolk,MA,2127,2.551032,2.551032,RFS39807,-71.0352710283,42.334103747501,2.551032
"AP Pizzeria, Inc.",Limited-Service Restaurants,722513,168 Great Rd,Acton,Middlesex,MA,1720,0.7598745,1.5,RFS326171,-71.416650339874,42.485557752063,1.12993725
Apazidis Family Restaurant,Full-Service Restaurants,722511,194 E Grove St,Middleboro,Plymouth,MA,2346,4.805625,10.176,RFS106456,-70.874501914512,41.866403554005,7.4908125
Aplus Pizzeria,Limited-Service Restaurants,722513,120 Broad St,Lynn,Essex,MA,1902,15.1031925,21,RFS301564,-70.939923680143,42.463302907926,18.05159625
Apollo Food Group,Full-Service Restaurants,722511,717 Atlantic Ave Ste 6c,Boston,Suffolk,MA,2111,1.4395095,11.872,RFS248476,-71.05639432345,42.35093069301,6.65575475
"Apollo Lefas Pizza, Inc.",Limited-Service Restaurants,722513,651 Washington St,Canton,Norfolk,MA,2021,1.416492,9,RFS419762,-71.145463949158,42.15501993013,5.208246
Apollo Pizza of Webster LLC,Limited-Service Restaurants,722513,170 Gore Rd,Webster,Worcester,MA,1570,1.4395095,10.5,RFS326870,-71.841932668591,42.05610720407,5.96975475
Apple New England LLC,Full-Service Restaurants,722511,222 Washington St,Hudson,Middlesex,MA,1749,71.76,88.192,RFS124440,-71.566637401549,42.379860625196,79.976
Apple New England LLC,Full-Service Restaurants,722511,251 N Main St,Leominster,Worcester,MA,1453,1.6966785,9,RFS137452,-71.759917667682,42.540942062416,5.34833925
Apple New England LLC,Full-Service Restaurants,722511,555 Hubbard Ave,Pittsfield,Berkshire,MA,1201,43.645,52.5,RFS220947,-73.196833545522,42.468348818527,48.0725
Apple New England LLC,Full-Service Restaurants,722511,632 Park Ave,Worcester,Worcester,MA,1603,69,84.8,RFS235259,-71.83449181901,42.246611178634,76.9
Apple New England LLC,Full-Service Restaurants,722511,900 S Washington St,North Attleboro,Bristol,MA,2760,103.5,127.2,RFS272356,-71.344205101127,41.952807321113,115.35
Apple New England LLC,Full-Service Restaurants,722511,100 Westgate Center Dr,Hadley,Hampshire,MA,1035,138,169.6,RFS28659,-72.542292819782,42.361275385741,153.8
Apple New England LLC,Full-Service Restaurants,722511,120 Charlton Rd Ste 6,Sturbridge,Worcester,MA,1566,82.8,101.76,RFS53856,-72.057605634677,42.123173475276,92.28
Apple New England LLC,Full-Service Restaurants,722511,1349 Boston Rd,Springfield,Hampden,MA,1119,71.76,88.192,RFS68638,-72.499154347482,42.140697892896,79.976
"Applebee's International, Inc.",Full-Service Restaurants,722511,113 Samoset St,Plymouth,Plymouth,MA,2360,69,84.8,RFS47143,-70.688990971124,41.951112974929,76.9
April 23 Cafe Newbury Inc,Full-Service Restaurants,722511,150 Heard St APT 512,Chelsea,Suffolk,MA,2150,7.973691,10.176,RFS79918,-71.037421832001,42.399182323073,9.0748455
Apriles European Restaurant LLC,Full-Service Restaurants,722511,10 Pomeworth St Unit B,Stoneham,Middlesex,MA,2180,20.2972935,30.528,RFS27523,-71.098338594715,42.483106837093,25.41264675
"Apsara Angkor, Inc.",Full-Service Restaurants,722511,877 Western Ave,Lynn,Essex,MA,1905,10.725495,16.96,RFS269652,-70.970087313596,42.458735407129,13.8427475
Aqua Grille Inc,Limited-Service Restaurants,722513,14 Gallo Rd,Sandwich,Barnstable,MA,2563,65.6406465,65.6406465,RFS313313,-70.501482373804,41.771346054651,65.6406465
"Aquarius, Inc.",Full-Service Restaurants,722511,1217 State St,Springfield,Hampden,MA,1109,3.302541,3.302541,RFS56894,-72.55022053614,42.116055045241,3.302541
Aquitaine,Full-Service Restaurants,722511,569 Tremont St,Boston,Suffolk,MA,2118,18.605301,23.744,RFS222946,-71.072294137742,42.343684818985,21.1746505
Aquitaine,Full-Service Restaurants,722511,584 Tremont St,Boston,Suffolk,MA,2118,23.921106,30.528,RFS225359,-71.072887013644,42.343236041153,27.224553
AR Pizza Inc,Limited-Service Restaurants,722513,264 Washington St,Pembroke,Plymouth,MA,2359,1.4395095,10.5,RFS358727,-70.793981879367,42.09464315438,5.96975475
AR Restaurants Inc,Full-Service Restaurants,722511,25 Greenwood Ave,Tewksbury,Middlesex,MA,1876,6.765759,10.176,RFS136282,-71.285628280522,42.613358019132,8.4708795
Aral Restaurant,Full-Service Restaurants,722511,415 Washington St,Weymouth,Norfolk,MA,2188,1.363032,1.363032,RFS190241,-70.958514931546,42.209324639333,1.363032
"Aral Restaurant Group of Fall River, Inc",Full-Service Restaurants,722511,135 Mariano Bishop Blvd,Fall River,Bristol,MA,2721,1.38,1.696,RFS68769,-71.162544529632,41.675293290005,1.538
"Aral Restaurant Group of Weymouth, LLC",Limited-Service Restaurants,722513,140 Lake St,Acushnet,Bristol,MA,2743,9.900429,16.5,RFS313497,-70.906479516507,41.737035009608,13.2002145
Aram S 2,Limited-Service Restaurants,722513,345 Cambridge St,Cambridge,Middlesex,MA,2141,21.42492,28.5,RFS377152,-71.081828499452,42.371329509909,24.96246
"Aramark Services, Inc.",Limited-Service Restaurants,722513,949 Commonwealth Ave,Boston,Suffolk,MA,2215,1.4395095,10.5,RFS445506,-71.119141252178,42.351682203054,5.96975475
Arbella Ins C O Cafe Serv,Full-Service Restaurants,722511,1900 Crown Colony Dr,Quincy,Norfolk,MA,2169,1.4395095,11.872,RFS104014,-71.019540838573,42.235459416399,6.65575475
Arboretum Grill,Limited-Service Restaurants,722513,4025 Washington St,Roslindale,Suffolk,MA,2131,3.908058,3.908058,RFS386870,-71.122623326829,42.29169326416,3.908058
Arcenia's Cucina Rustica,Full-Service Restaurants,722511,2 Sylvester Rd,Burlington,Middlesex,MA,1803,2.4876225,13.568,RFS108869,-71.176653155316,42.494287661282,8.02781125
"Archangel Eateries, L.L.C.",Caterers,722320,40 Abbott St,Springfield,Hampden,MA,1118,1.2389025,1.2389025,RFS14633,-72.531397970717,42.092538973075,1.2389025
Ardeo Cafe & Catering Co.,Caterers,722320,581 Main St,West Dennis,Barnstable,MA,2670,1.4395095,11.872,RFS18549,-70.161465938902,41.6668898332,6.65575475
Area Four- Cafe,Full-Service Restaurants,722511,500 Technology Sq FL 4,Cambridge,Middlesex,MA,2139,3.9197235,20.352,RFS208750,-71.09119887674,42.363418519435,12.13586175
"Area Four Somerville Operating, LLC",Limited-Service Restaurants,722513,500 Technology Sq FL 4,Cambridge,Middlesex,MA,2139,3.9197235,18,RFS400895,-71.09119887674,42.363418519435,10.95986175
Areanna's Cafe LLC,Full-Service Restaurants,722511,412 Essex St,Lawrence,Essex,MA,1840,1.5788355,11.872,RFS189224,-71.163774315924,42.706642297283,6.72541775
Arethas Kitchen,Full-Service Restaurants,722511,118 Cambridge St,Worcester,Worcester,MA,1603,4.7819475,8.48,RFS51828,-71.826142061183,42.243547153345,6.63097375
"Arguin Country Gardens, LLC",Caterers,722320,339 Tremont St,Rehoboth,Bristol,MA,2769,0.3924855,5.088,RFS13290,-71.252164283945,41.90327906674,2.74024275
Aria Trattoria LLC,Full-Service Restaurants,722511,253 Hanover St APT 2,Boston,Suffolk,MA,2113,4.289703,28.832,RFS138462,-71.05490748603,42.363291087302,16.5608515
Ariabella Inc,Full-Service Restaurants,722511,52 Queensberry St,Boston,Suffolk,MA,2215,4.1872875,8.48,RFS214120,-71.097323388783,42.342709803591,6.33364375
Ariana Restaurant,Full-Service Restaurants,722511,384 Western Ave,Boston,Suffolk,MA,2135,2.1837915,13.568,RFS180684,-71.137573247017,42.362827766833,7.87589575
Ariana Restaurant Inc,Full-Service Restaurants,722511,80 Newbury St,Framingham,Middlesex,MA,1701,12.4038915,18.656,RFS259126,-71.398343690642,42.30789494936,15.52994575
Arigato Sushi,Full-Service Restaurants,722511,11 N Pleasant St,Amherst,Hampshire,MA,1002,10.379721,18.656,RFS41752,-72.519762736679,42.376028308972,14.5178605
Aristocrat Hospitality LLC,Full-Service Restaurants,722511,401 D St,Boston,Suffolk,MA,2210,1.044747,1.044747,RFS185219,-71.045908631265,42.342928156312,1.044747
Arisu Korean Restaurant Corp.,Full-Service Restaurants,722511,704 N Main St,Leominster,Worcester,MA,1453,6.1794315,15.264,RFS245906,-71.768632597781,42.554749903463,10.72171575
Arizona Pizza Co,Limited-Service Restaurants,722513,367 Russell St Ste 54,Hadley,Hampshire,MA,1035,20.759442,33,RFS380756,-72.548912433923,42.358630233947,26.879721
Arizona Pizza Co,Limited-Service Restaurants,722513,51 Park St,Lee,Berkshire,MA,1238,15.35457,22.5,RFS402688,-73.24822100531,42.304155267271,18.927285
"Arkalis Regan, Denise L",Caterers,722320,21 Wilmington Rd,Burlington,Middlesex,MA,1803,9.021012,13.568,RFS8414,-71.20866038315,42.521588811429,11.294506
Arkansas,Full-Service Restaurants,722511,529 Main St Ste 605,Charlestown,Suffolk,MA,2129,11.960553,15.264,RFS216091,-71.071822278313,42.383556210374,13.6122765
Arlington Cafe,Full-Service Restaurants,722511,475 Summer St,Arlington,Middlesex,MA,2474,3.540273,15.264,RFS203766,-71.173952454244,42.427332439075,9.4021365
"Armando and Luiza Restaurant, Inc.",Full-Service Restaurants,722511,306 Boston Rd,North Billerica,Middlesex,MA,1862,13.531518,20.352,RFS157207,-71.276510775085,42.570549398668,16.941759
Armando's Pizza,Limited-Service Restaurants,722513,163 Huron Ave,Cambridge,Middlesex,MA,2138,0.9277125,0.9277125,RFS324580,-71.131291261831,42.382298183377,0.9277125
"Aroma Pizza & Grill, LLC",Limited-Service Restaurants,722513,143 N Quincy St,Abington,Plymouth,MA,2351,2.6244735,2.6244735,RFS315601,-70.93765607722,42.108091673344,2.6244735
Aroma Pizza Ngrill,Limited-Service Restaurants,722513,108 Mechanic St Ste 16,Bellingham,Norfolk,MA,2019,12.39645,18,RFS292812,-71.467315611523,42.082360993202,15.198225
Aroma Tavern & Grill,Limited-Service Restaurants,722513,739 State Rd,Plymouth,Plymouth,MA,2360,2.8131675,10.5,RFS428267,-70.554602546978,41.914908969401,6.65658375
Around The Table Inc,Full-Service Restaurants,722511,5 Glenwood Ave,Falmouth,Barnstable,MA,2541,0.14949,10.176,RFS207652,-70.617070621015,41.55164059134,5.162745
Around Town Events & Catering,Caterers,722320,20 Kimberlys Ln,Provincetown,Barnstable,MA,2657,6.9,8.48,RFS7737,-70.199360475613,42.046584919809,7.69
Arrow Pembroke LLC,Full-Service Restaurants,722511,300 Center St,Pembroke,Plymouth,MA,2359,12.9687195,22.048,RFS153521,-70.810643268903,42.058588809597,17.50835975
Art Gourmet Catering,Caterers,722320,6 Montvale Ave,Stoneham,Middlesex,MA,2180,3.939639,16.96,RFS18797,-71.102742696799,42.482250661527,10.4498195
Artbar,Full-Service Restaurants,722511,40 Edwin H Land Blvd,Cambridge,Middlesex,MA,2142,32.701185,49.184,RFS184078,-71.075344600534,42.366826312103,40.9425925
Artic Ice,Limited-Service Restaurants,722513,244 Liberty St,Brockton,Plymouth,MA,2301,1.3035825,3,RFS353646,-71.060226077447,42.051801635125,2.15179125
Artichokes,Full-Service Restaurants,722511,317 Main St Ste 1,Wakefield,Middlesex,MA,1880,14.6591445,22.048,RFS161725,-71.071733444421,42.505594618613,18.35357225
Artificial Ice Events LLC,Limited-Service Restaurants,722513,5 Mountain Ave,Saugus,Essex,MA,1906,2.155923,2.155923,RFS400305,-71.007776861031,42.450694994019,2.155923
Artisan Bistro,Full-Service Restaurants,722511,10 Avery St,Boston,Suffolk,MA,2111,1.890009,13.568,RFS27164,-71.063255877345,42.353223032362,7.7290045
Artist Cafe,Full-Service Restaurants,722511,22 Washington St,Haverhill,Essex,MA,1832,3.4532025,13.568,RFS122511,-71.08356647308,42.773362375494,8.51060125
A'S 8,Full-Service Restaurants,722511,9 Rice Ave,Medford,Middlesex,MA,2155,12.42,15.264,RFS271815,-71.104547813562,42.402789291173,13.842
Asaka Restaurant,Full-Service Restaurants,722511,434 Washington St Unit 5,Norwell,Plymouth,MA,2061,10.973523,18.656,RFS195250,-70.85544672768,42.159750062655,14.8147615
Ascari Restaurant,Limited-Service Restaurants,722513,290 Wood Rd,Braintree,Norfolk,MA,2184,15.4955625,15.4955625,RFS363952,-71.040330249473,42.218389862055,15.4955625
Ascot Cafe Inc,Full-Service Restaurants,722511,317 Jefferson Ave,Salem,Essex,MA,1970,8.0903625,25.44,RFS161711,-70.89931741963,42.502258155822,16.76518125
Ashley Kitchen-Sweet,Full-Service Restaurants,722511,1539 Massachusetts Ave,North Adams,Berkshire,MA,1247,11.2600125,18.656,RFS83642,-73.168811043143,42.704575469922,14.95800625
Ashmont Grille Inc,Limited-Service Restaurants,722513,555 Talbot Ave,Dorchester,Suffolk,MA,2124,1.645314,1.645314,RFS408709,-71.064808612758,42.286754044779,1.645314
Asia Absolutely,Full-Service Restaurants,722511,864 Main St,Waltham,Middlesex,MA,2451,3.574989,16.96,RFS268594,-71.245728404448,42.37620751171,10.2674945
Asia Bistro,Full-Service Restaurants,722511,195 W Central St,Natick,Middlesex,MA,1760,3.654453,16.96,RFS106902,-71.382616160945,42.282457032128,10.3072265
Asia Little,Full-Service Restaurants,722511,991 Bennington St,Boston,Suffolk,MA,2128,31.8948135,40.704,RFS282730,-71.008690326459,42.385921010853,36.29940675
Asia Tasty,Full-Service Restaurants,722511,24 Main St,Plymouth,Plymouth,MA,2360,12.4366935,79.712,RFS132096,-70.66438427628,41.956258014417,46.07434675
Asia Treasures,Full-Service Restaurants,722511,399 High Plain St Rm Main,Walpole,Norfolk,MA,2081,3.915318,3.915318,RFS183552,-71.220293937011,42.141146243067,3.915318
Asian Bistro LLC Ta Shangri La Kitchen,Full-Service Restaurants,722511,149 Orange St,Nantucket,Nantucket,MA,2554,13.717,40.255842,RFS78937,-70.090317561036,41.273018046106,26.986421
Asian Buffet of Greenfield Inc.,Limited-Service Restaurants,722513,254 Mohawk Trl,Greenfield,Franklin,MA,1301,3.955215,3.955215,RFS356479,-72.626303622418,42.586068416192,3.955215
"Asian Cuisine, Inc.",Full-Service Restaurants,722511,725 Boylston St,Boston,Suffolk,MA,2116,3.6485295,13.568,RFS249920,-71.080218961224,42.349393497546,8.60826475
Asian Deli,Limited-Service Restaurants,722513,691 Main St,Walpole,Norfolk,MA,2081,8.4550125,12,RFS422847,-71.246259963235,42.154228838058,10.22750625
Asian Essence,Full-Service Restaurants,722511,2291 State Rd Ste 9,Plymouth,Plymouth,MA,2360,8.978343,15.264,RFS127494,-70.552336686998,41.818927255929,12.1211715
Asian Express,Full-Service Restaurants,722511,12 Brook St,Quincy,Norfolk,MA,2170,2.1865965,11.872,RFS53471,-71.020998374623,42.266070500159,7.02929825
Asian Gourmet,Full-Service Restaurants,722511,794 Elm St,Concord,Middlesex,MA,1742,2.626899,11.872,RFS258288,-71.390021298057,42.465510729781,7.2494495
"Asian Hibachi & Sushi Buffet, Inc.",Limited-Service Restaurants,722513,462 Quincy Ave,Braintree,Norfolk,MA,2184,2.9935785,10.5,RFS396235,-70.978160609105,42.234751397586,6.74678925
Asian House,Full-Service Restaurants,722511,933 Pleasant St Ste 5,Fall River,Bristol,MA,2723,8.6110035,8.6110035,RFS277196,-71.140148608934,41.695401198322,8.6110035
"Asian International Restaurant, LLC",Full-Service Restaurants,722511,91 Stafford St,Worcester,Worcester,MA,1603,12.43308,22.048,RFS274029,-71.843236099327,42.239630554717,17.24054
Asian Kitchen,Full-Service Restaurants,722511,57 Revere St,Winthrop,Suffolk,MA,2152,1.5834555,13.568,RFS223079,-70.98043068517,42.382343927302,7.57572775
Asian Paradise,Full-Service Restaurants,722511,1587 W Main St,West Chatham,Barnstable,MA,2669,12.42,15.264,RFS86055,-69.992896819249,41.682497610077,13.842
Asian Plus,Full-Service Restaurants,722511,313 Littleton Rd,Westford,Middlesex,MA,1886,18.042024,27.136,RFS160360,-71.449876183924,42.554160375797,22.589012
Asian Wellesley LLC,Full-Service Restaurants,722511,11 Washington St,Wellesley Hills,Norfolk,MA,2481,2.947395,13.568,RFS41919,-71.259601113767,42.325251739003,8.2576975
Asiana Bistro,Full-Service Restaurants,722511,200 Great Rd,Bedford,Middlesex,MA,1730,4.137408,16.96,RFS109580,-71.271434765654,42.489119578704,10.548704
Assembly Roast,Limited-Service Restaurants,722513,814 East St,Pittsfield,Berkshire,MA,1201,2.345112,12,RFS435109,-73.236417674614,42.450704746575,7.172556
"Assorti, LLC",Full-Service Restaurants,722511,384 S Main St,Sharon,Norfolk,MA,2067,12.39645,20.352,RFS180678,-71.199043993307,42.107906449554,16.374225
Asta,Full-Service Restaurants,722511,47 Massachusetts Ave,Boston,Suffolk,MA,2115,3.4966635,16.96,RFS202476,-71.089110139064,42.349876506641,10.22833175
Aster,Full-Service Restaurants,722511,489 Washington St,Auburn,Worcester,MA,1501,0.933504,5.088,RFS205832,-71.830837468305,42.187947596657,3.010752
"Atha's Famous Roast Beef, Inc.",Limited-Service Restaurants,722513,25 Boston St,Lynn,Essex,MA,1904,3.952377,18,RFS354771,-70.956318952329,42.47869135813,10.9761885
Athasfamousroastbeefpizza,Limited-Service Restaurants,722513,25 Boston St,Lynn,Essex,MA,1904,19.3059075,27,RFS354770,-70.956318952329,42.47869135813,23.15295375
Athen's Pizza,Limited-Service Restaurants,722513,26 Sturbridge Rd,Brimfield,Hampden,MA,1010,1.7264445,9,RFS357524,-72.198511815524,42.119443051652,5.36322225
Athen's Pizza,Full-Service Restaurants,722511,17 Main St,Brimfield,Hampden,MA,1010,1.9450695,1.9450695,RFS92780,-72.20315887132,42.122039577354,1.9450695
Athens Pizza Family Restaurante,Full-Service Restaurants,722511,525 Main St,Leominster,Worcester,MA,1453,1.453155,10.176,RFS215438,-71.74069163012,42.540232867754,5.8145775
Athens Restaurant Inc,Limited-Service Restaurants,722513,642 Middle St,Weymouth,Norfolk,MA,2189,2.825559,6,RFS418868,-70.94453624579,42.20273410068,4.4127795
"Atina Asian Bistro, LLC",Full-Service Restaurants,722511,115 S Main St,West Bridgewater,Plymouth,MA,2379,1.247,1.5,RFS49294,-71.001970617964,42.015989377472,1.3735
Atlantic Kitchen,Full-Service Restaurants,722511,1374 N Main St,Randolph,Norfolk,MA,2368,1.4395095,11.872,RFS70439,-71.062257569445,42.200355415933,6.65575475
Atlantic Seafood Market,Full-Service Restaurants,722511,60 Madeira Ave,New Bedford,Bristol,MA,2746,0.7944255,0.7944255,RFS227701,-70.925186736088,41.666343658355,0.7944255
Atlantic Shore Restaurant Corporation,Full-Service Restaurants,722511,346 Congress St,Boston,Suffolk,MA,2210,14.6184555,18.656,RFS171457,-71.04872786382,42.35060176199,16.63722775
"Atlas Diafa Group, Inc.",Full-Service Restaurants,722511,734 Washington St,Norwood,Norfolk,MA,2062,2.0755845,5.088,RFS251353,-71.202486384357,42.191571295047,3.58179225
Atomic Bean Cafe,Full-Service Restaurants,722511,904 Massachusetts Ave,Cambridge,Middlesex,MA,2139,2.7132765,16.96,RFS273233,-71.108491568205,42.368177791552,9.83663825
"Atomic Bean Cafe, Inc.",Full-Service Restaurants,722511,5 Esteymere Pl,Middleton,Essex,MA,1949,,,RFS207638,-71.019364123045,42.591179253555,
Attleboro Del's Inc.,Limited-Service Restaurants,722513,33 Hope St,Attleboro,Bristol,MA,2703,10.800471,18,RFS374016,-71.279291258862,41.949971075655,14.4002355
"Attleboro Pancakes, Inc.",Full-Service Restaurants,722511,383 Washington St,Attleboro,Bristol,MA,2703,10.800471,22.048,RFS180469,-71.359369391918,41.918172868808,16.4242355
Augie's Food Truck LLC,Mobile Food Services,722330,323 N Main St,Raynham,Bristol,MA,2767,0.378543,1.5,RFS25212,-71.051651052158,41.931362236884,0.9392715
August Summer Group LLC,Full-Service Restaurants,722511,3 Meadow Ln,Milton,Norfolk,MA,2186,4.2608775,20.352,RFS152955,-71.071819607189,42.239657178807,12.30643875
Augusta Lawn Care Services of Sandwich LLC,Limited-Service Restaurants,722513,73 Gully Ln,Sandwich,Barnstable,MA,2563,11.223,14.7691335,RFS427422,-70.479629765547,41.738926524218,12.99606675
Auntie Dot's Restaurant,Limited-Service Restaurants,722513,244 Grafton St,Worcester,Worcester,MA,1604,1.480545,3,RFS353640,-71.789294137876,42.256367464288,2.2402725
Aunties Ice Cream Parlor,Limited-Service Restaurants,722513,671 Main St,Dennis Port,Barnstable,MA,2639,12.47,16.4101575,RFS421371,-70.123843284361,41.667906676833,14.44007875
Aura Restaurant,Full-Service Restaurants,722511,1 Seaport Ln,Boston,Suffolk,MA,2210,19.934244,19.934244,RFS26964,-71.041145141267,42.349683343407,19.934244
Aurora Vietnamese Cuisine,Full-Service Restaurants,722511,140 Washington St,Salem,Essex,MA,1970,8.580396,13.568,RFS72302,-70.895681928637,42.520563550296,11.074198
Aurum Restaurant,Full-Service Restaurants,722511,377 Centre St,Jamaica Plain,Suffolk,MA,2130,2.827671,11.872,RFS178971,-71.109022071277,42.322293897445,7.3498355
Autumn & Willow Events and Catering LLC,Caterers,722320,40 Scales Ln,Townsend,Middlesex,MA,1469,1.4395095,11.872,RFS14663,-71.721707111597,42.668741938511,6.65575475
Autumn Lane Coffee LLC,Limited-Service Restaurants,722513,355 Maple St,Springfield,Hampden,MA,1105,1.4395095,10.5,RFS378975,-72.573765622335,42.095178770068,5.96975475
AV Wtc Seaport Employe CA,"Cafeterias, Grill Buffets, and Buffets",722514,200 Seaport Blvd,Boston,Suffolk,MA,2210,13.289496,16.96,RFS449372,-71.041519846857,42.349972201902,15.124748
Ava Cucina,Full-Service Restaurants,722511,107 Ripley Rd,Cohasset,Norfolk,MA,2025,2.654421,11.872,RFS38900,-70.804202354596,42.240977573338,7.2632105
Avana Sushi & Seafood Inc,Full-Service Restaurants,722511,589 Main St,Reading,Middlesex,MA,1867,3.3370755,15,RFS225817,-71.102954560171,42.523321444819,9.16853775
Avenue Deli LLC,Limited-Service Restaurants,722513,15 University Rd APT 24,Brookline,Norfolk,MA,2445,9.2973375,9.2973375,RFS318405,-71.135518534293,42.338603082232,9.2973375
Avenue Restaurant LLC,Full-Service Restaurants,722511,4 Hale Pl,Medfield,Norfolk,MA,2052,14.4625305,23.744,RFS183777,-71.302079781626,42.185905828575,19.10326525
Avenue Restaurant LLC,Full-Service Restaurants,722511,445 Main St,Medfield,Norfolk,MA,2052,1.5834555,1.5834555,RFS197759,-71.304322290122,42.187145138161,1.5834555
Avo's Feast,Full-Service Restaurants,722511,21 Seaview St,Fall River,Bristol,MA,2724,8.100345,15.264,RFS116525,-71.192151234671,41.681543641928,11.6821725
"Aw & Al Restaurants, LLC",Full-Service Restaurants,722511,5 Mark Twain Dr,Lakeville,Plymouth,MA,2347,6.9831465,11.872,RFS207715,-70.953207162588,41.823510239614,9.42757325
Away Cafe LLC,Full-Service Restaurants,722511,10 Seawitch Ln,South Weymouth,Norfolk,MA,2190,15.4955625,25.44,RFS27583,-70.934776056442,42.169668052812,20.46778125
Awfully Tasty Corporation,Full-Service Restaurants,722511,15 Lincoln St,Newton,Middlesex,MA,2461,16.9143975,25.44,RFS79540,-71.206728406954,42.321674034263,21.17719875
Awoken Eye,Full-Service Restaurants,722511,854 Main St,Fitchburg,Worcester,MA,1420,1.4395095,11.872,RFS267595,-71.805292792525,42.585761689946,6.65575475
Axelcolle Enterprises Inc,Caterers,722320,8 Evergreen Ln,Topsfield,Essex,MA,1983,7.1266965,18.656,RFS21741,-70.936791357304,42.633745624885,12.89134825
Ayelada Inc.,Limited-Service Restaurants,722513,95 Main St,Dalton,Berkshire,MA,1226,17.912862,27.136,RFS445586,-73.183378579147,42.470894196019,22.524431
Ayur Shri Inc.,Full-Service Restaurants,722511,387 State Rd,North Dartmouth,Bristol,MA,2747,5.775,8.48,RFS181143,-70.994781538919,41.639959510141,7.1275
"Azama Grill, Inc.",Full-Service Restaurants,722511,54 Harvard Ave,Allston,Suffolk,MA,2134,5.4198375,23.744,RFS218014,-71.132370641039,42.354371668525,14.58191875
Azorean Bistro,Full-Service Restaurants,722511,35 Blackstone River Rd,Worcester,Worcester,MA,1607,1.453188,10.176,RFS172074,-71.794884286869,42.233044224908,5.814594
"B & B Caffe, LLC",Full-Service Restaurants,722511,2 Florence St,Malden,Middlesex,MA,2148,3.7964685,16.96,RFS108588,-71.073421750102,42.427701300888,10.37823425
"B & D Ichiro, Inc.",Full-Service Restaurants,722511,538 Adams St,Milton,Norfolk,MA,2186,4.543308,4.543308,RFS217810,-71.040973702817,42.258308125608,4.543308
B & F House of Pizza,Limited-Service Restaurants,722513,227 Lake St,Waltham,Middlesex,MA,2451,2.2248435,4.5,RFS348763,-71.244498127549,42.404490323209,3.36242175
B & F House of Pizza,Limited-Service Restaurants,722513,67 Broadway,Taunton,Bristol,MA,2780,1.65,1.65,RFS421139,-71.089434416727,41.909278428519,1.65
"B & L Coffee, LLC",Limited-Service Restaurants,722513,3 Oxford Dr,North Dartmouth,Bristol,MA,2747,1.4395095,1.4395095,RFS365769,-71.0320768946,41.625092923836,1.4395095
B & T Boston Corp,Limited-Service Restaurants,722513,223 Adams St,Dorchester,Suffolk,MA,2122,0.495,7.5,RFS347563,-71.059897841945,42.301569961748,3.9975
B and B Pizza,Limited-Service Restaurants,722513,10 Seaboard Ln,Hyannis,Barnstable,MA,2601,0.750552,1.5,RFS284811,-70.31668795029,41.652350147029,1.125276
B B Bubs Que,Full-Service Restaurants,722511,676 Amherst Rd,Sunderland,Franklin,MA,1375,1.61007,1.61007,RFS241266,-72.541658960622,42.429233307338,1.61007
"B B C Catering, Inc.",Caterers,722320,3 Sullivan St,Woburn,Middlesex,MA,1801,12.4038915,18.656,RFS11807,-71.143199276899,42.481616131678,15.52994575
B Good LLC,Full-Service Restaurants,722511,391 Sumner St,Norwood,Norfolk,MA,2062,1.543311,6.784,RFS182110,-71.197419619441,42.157112013114,4.1636555
B Hanger,Full-Service Restaurants,722511,240 George Ryder Rd,Chatham,Barnstable,MA,2633,3.581721,15.264,RFS132308,-69.990895661089,41.690653031901,9.4228605
B Laws Diners,Full-Service Restaurants,722511,15 S Main St,Leicester,Worcester,MA,1524,7.1324055,15.264,RFS79685,-71.907188097021,42.245348569387,11.19820275
B Sisters Inc.,Full-Service Restaurants,722511,680 Worcester Rd Ste 7,Framingham,Middlesex,MA,1702,13.531518,20.352,RFS241770,-71.42378083416,42.298183407447,16.941759
B Street,Full-Service Restaurants,722511,796 Beacon St,Newton,Middlesex,MA,2459,1.963533,10.176,RFS258479,-71.193581418847,42.330211291075,6.0697665
"B&P Diners, LLC",Full-Service Restaurants,722511,71 Lafayette St,Salem,Essex,MA,1970,2.3339415,13.568,RFS246859,-70.893259906236,42.519110103133,7.95097075
"B. F. South, Inc.",Limited-Service Restaurants,722513,375 Lynnway,Lynn,Essex,MA,1901,38.657,46.5,RFS381955,-70.950785723454,42.457255168628,42.5785
"B. Stone, Inc.",Full-Service Restaurants,722511,1505 Dorchester Ave,Dorchester,Suffolk,MA,2122,58.473822,74.624,RFS80877,-71.060555532057,42.29916849295,66.548911
B.good LLC,Limited-Service Restaurants,722513,1265 Worcester St Ste 2,Natick,Middlesex,MA,1760,9.976,12,RFS306597,-71.388517610154,42.299155339888,10.988
B.good LLC,Limited-Service Restaurants,722513,168 Great Rd,Bedford,Middlesex,MA,1730,1.247,1.5,RFS326172,-71.274818844983,42.490175045505,1.3735
B.good LLC,Limited-Service Restaurants,722513,2 Park Plz Ste 216,Boston,Suffolk,MA,2116,8.729,10.5,RFS337050,-71.067986246865,42.351683929056,9.6145
B.good LLC,Limited-Service Restaurants,722513,360 Longwood Ave,Boston,Suffolk,MA,2215,12.47,15,RFS379646,-71.10751643242,42.338982880934,13.735
B.good LLC,Limited-Service Restaurants,722513,708 Legacy Pl,Dedham,Norfolk,MA,2026,1.247,1.5,RFS425028,-71.17553779921,42.231420664996,1.3735
B.good LLC,Limited-Service Restaurants,722513,88 Mall Rd,Burlington,Middlesex,MA,1803,1.247,1.5,RFS439956,-71.184906265728,42.519811454511,1.3735
Ba Le Restaurant,Limited-Service Restaurants,722513,1052 Dorchester Ave,Dorchester,Suffolk,MA,2125,9.976,12,RFS291035,-71.056724472109,42.31469117572,10.988
Baba Ghannooj Inc,Limited-Service Restaurants,722513,661 Washington St,Attleboro,Bristol,MA,2703,2.494,3.3,RFS420639,-71.36355482429,41.909726378004,2.897
Baba Sushi Sturbridge,Full-Service Restaurants,722511,453 Main St,Sturbridge,Worcester,MA,1518,14.345859,25.44,RFS199640,-72.103634970732,42.113707215206,19.8929295
Babalouie's Sour Dough Pizza Co,Limited-Service Restaurants,722513,34 Depot St,Pittsfield,Berkshire,MA,1201,1.38,1.696,RFS375990,-73.253829735108,42.450409853451,1.538
Baba's Pizza,Limited-Service Restaurants,722513,1814 Turnpike St,North Andover,Essex,MA,1845,10.725495,15,RFS331420,-71.074278637228,42.634847959468,12.8627475
Babbo Pizzeria,Limited-Service Restaurants,722513,320 Summer St,Boston,Suffolk,MA,2210,3.9170505,16.5,RFS371955,-71.048903152105,42.349671770421,10.20852525
"Babs Dawg, Inc.",Full-Service Restaurants,722511,815 Cotuit Rd,Mashpee,Barnstable,MA,2649,9.66,11.872,RFS262373,-70.477082234787,41.681931333901,10.766
Baby Cafe USA Inc,Full-Service Restaurants,722511,16 Hawthorne St,Wakefield,Middlesex,MA,1880,0.3258585,16.96,RFS86579,-71.070378995598,42.488301470667,8.64292925
Bacci's,Full-Service Restaurants,722511,316 Main St,Stoneham,Middlesex,MA,2180,1.4395095,11.872,RFS161464,-71.100106964532,42.481567306785,6.65575475
Baccis North End Pizzeria,Limited-Service Restaurants,722513,136 Newbury St,Peabody,Essex,MA,1960,11.7980445,16.5,RFS311894,-70.990636968851,42.533555185426,14.14902225
"Bacci's Northend Pizzeria, Inc.",Limited-Service Restaurants,722513,3 Main St,Saugus,Essex,MA,1906,1.030392,1.030392,RFS365739,-71.010057142485,42.464937971255,1.030392
Back Bay Bagel Company,Limited-Service Restaurants,722513,1260 Belmont St,Brockton,Plymouth,MA,2301,15.961506,15.961506,RFS306366,-71.067150706176,42.058987756819,15.961506
Back Bay Restaurant of Hudson Inc,Full-Service Restaurants,722511,93 Apsley St,Hudson,Middlesex,MA,1749,2.223672,3.392,RFS276666,-71.574661411983,42.395227331366,2.807836
Back Porch Bbq,Full-Service Restaurants,722511,181 Turners Falls Rd,Montague,Franklin,MA,1351,8.2190955,15.264,RFS99671,-72.545902203055,42.580834481943,11.74154775
Back Yard Burger Bar,Limited-Service Restaurants,722513,17 New Driftway,Scituate,Plymouth,MA,2066,13.9663095,21,RFS326761,-70.750076533249,42.177027072805,17.48315475
Backyard Bar and Grille,Limited-Service Restaurants,722513,1508 Riverdale St,West Springfield,Hampden,MA,1089,8.9233485,15,RFS319282,-72.628712642287,42.144265939866,11.96167425
B-Ackyard Bbq,Full-Service Restaurants,722511,20 Straight Wharf,Nantucket,Nantucket,MA,2554,2.5443165,13.568,RFS109280,-70.095579209837,41.284279042496,8.05615825
Backyard Grillin Company,Full-Service Restaurants,722511,37 Brigham St,Hubbardston,Worcester,MA,1452,9.5639115,16.96,RFS177135,-71.99535690683,42.479145229148,13.26195575
Bahama Breeze 3048 FI,Full-Service Restaurants,722511,413 Middlesex Rd,Tyngsboro,Middlesex,MA,1879,12.4038915,18.656,RFS189567,-71.438582393218,42.696744827763,15.52994575
Bailey and Sage,Full-Service Restaurants,722511,355 Main St Ste 103,Cambridge,Middlesex,MA,2142,27.0630525,40.704,RFS173962,-71.087373701612,42.362602751144,33.88352625
Bailey and Sage,Full-Service Restaurants,722511,103 State St,Boston,Suffolk,MA,2109,43.8553665,55.968,RFS34287,-71.055047766096,42.359119062123,49.91168325
Bailey's Coffee Shop,Limited-Service Restaurants,722513,267 Railroad Ave,Norwood,Norfolk,MA,2062,10.3303695,15,RFS359241,-71.201751372181,42.197957024413,12.66518475
"Baileys On The Green, LLC",Limited-Service Restaurants,722513,303 Townsend Hill Rd,Townsend,Middlesex,MA,1469,13.531518,18,RFS367735,-71.675913408206,42.686414442905,15.765759
Bailey's Surf N Turf,Full-Service Restaurants,722511,3056 Cranberry Hwy,Wareham,Plymouth,MA,2571,69,84.8,RFS157160,-70.652025184609,41.756737712295,76.9
"Bajza, Inc.",Limited-Service Restaurants,722513,327 Broadway,Revere,Suffolk,MA,2151,2.3590545,12,RFS373639,-71.012937490295,42.408976065133,7.17952725
"Bakers Beach Snack Bar, LLC",Snack and Nonalcoholic Beverage Bars,722515,94 Highland Ave,Fall River,Bristol,MA,2720,2.3788875,13.5,RFS451070,-71.149623357747,41.708169742155,7.93944375
Balance Patch,Full-Service Restaurants,722511,1031 Commonwealth Ave,Boston,Suffolk,MA,2215,14.6184555,18.656,RFS34579,-71.122001137673,42.352019394809,16.63722775
"Baldies Pizzeria, Inc.",Limited-Service Restaurants,722513,201 Hemlock Shore Rd,Lakeville,Plymouth,MA,2347,17.956686,27,RFS338636,-70.9393691476,41.812442784956,22.478343
"Baldwinville Pizza Barn, Inc.",Limited-Service Restaurants,722513,235 Leo Dr,Gardner,Worcester,MA,1440,1.6791555,9,RFS351230,-72.018482651253,42.601335907723,5.33957775
Baldwinville Station,Full-Service Restaurants,722511,9 Circle St,Baldwinville,Worcester,MA,1436,2.4747525,11.872,RFS271615,-72.074725199678,42.608295569118,7.17337625
Balis Corporation,Full-Service Restaurants,722511,59 Essex St,Lawrence,Essex,MA,1840,22.523556,35.616,RFS225896,-71.154679742441,42.707797424398,29.069778
Balkan Burger Queen,Limited-Service Restaurants,722513,1 Seal Harbor Rd,Winthrop,Suffolk,MA,2152,0.96525,4.5,RFS284462,-70.969589732477,42.387820643357,2.732625
Ball Square Cafe Breakfast Inc,Full-Service Restaurants,722511,708 Broadway,Somerville,Middlesex,MA,2144,41.7222135,62.752,RFS246547,-71.112430496825,42.399930611252,52.23710675
Ballarin Inc,Full-Service Restaurants,722511,26 Stillman St APT 4-3,Boston,Suffolk,MA,2113,4.4362725,4.4362725,RFS140536,-71.057131378864,42.363786890061,4.4362725
"Bamboo Cuisine, Inc.",Full-Service Restaurants,722511,100 Academy Hill Rd APT 2,Brighton,Suffolk,MA,2135,9.3026505,11.872,RFS27731,-71.154554146767,42.34595381046,10.58732525
Bamboo Express,Full-Service Restaurants,722511,15 Main Ave,Bellingham,Norfolk,MA,2019,0.939378,1.696,RFS79551,-71.473547178968,42.093899724635,1.317689
Bamboo Fine Asian Cuisine,Full-Service Restaurants,722511,213 Burlington Rd,Bedford,Middlesex,MA,1730,15.18,18.656,RFS119234,-71.235971983915,42.501974399084,16.918
Bamboo Fine Asian Cuisine,Full-Service Restaurants,722511,55 Ariadne Rd,Dedham,Norfolk,MA,2026,1.38,1.696,RFS219612,-71.182665593832,42.232071829137,1.538
Bamboo House,Full-Service Restaurants,722511,491 Nichols St,Norwood,Norfolk,MA,2062,2.993034,2.993034,RFS206332,-71.223087432396,42.184374057247,2.993034
"Bamboo Moon, Inc.",Full-Service Restaurants,722511,41 N Main St,Randolph,Norfolk,MA,2368,7.0173675,16.96,RFS188111,-71.042001323671,42.163647654142,11.98868375
Bamboo Restaurant,Full-Service Restaurants,722511,1285 Belmont St Ste 7,Brockton,Plymouth,MA,2301,5.9855565,10.176,RFS62663,-71.06857129134,42.058224768586,8.08077825
"Bamboo's Chinese Express, Inc.",Full-Service Restaurants,722511,58 Perry St,Weymouth,Norfolk,MA,2189,12.39645,20.352,RFS224543,-70.934898119714,42.195558649717,16.374225
Bangkok Cuisine Hyannis Incorporated,Full-Service Restaurants,722511,20 Independence Dr,Hyannis,Barnstable,MA,2601,16.56,20.352,RFS109102,-70.299663330843,41.671338343745,18.456
Bangkok Hill Restaurant,Full-Service Restaurants,722511,177 Massachusetts Ave,Lunenburg,Worcester,MA,1462,15.9473985,20.352,RFS97306,-71.764109355434,42.590279199143,18.14969925
Bangkok Spice Thai Restaurant,Full-Service Restaurants,722511,76 Haven St,Reading,Middlesex,MA,1867,1.4365395,1.4365395,RFS254452,-71.105945747434,42.522640652764,1.4365395
Bangkok Thai Cuisine,Full-Service Restaurants,722511,681 Falmouth Rd,Mashpee,Barnstable,MA,2649,11.04,13.568,RFS241969,-70.490907076064,41.609683735582,12.304
Bangkok Thai Cuisine,Full-Service Restaurants,722511,102 Kilkore Dr,Hyannis,Barnstable,MA,2601,9.66,11.872,RFS32748,-70.314608105897,41.666242736543,10.766
Bangna Garden Restaurant,Full-Service Restaurants,722511,77 Summer St,Kingston,Plymouth,MA,2364,6.9127575,25.44,RFS255592,-70.730352613172,41.998795734415,16.17637875
Banh MI Ngon LLC,Full-Service Restaurants,722511,1759 Centre St,West Roxbury,Suffolk,MA,2132,3.4978185,16.96,RFS96909,-71.15065552092,42.287401261829,10.22890925
Banhmi Saigon,Full-Service Restaurants,722511,115 S Maple St,Hadley,Hampshire,MA,1035,4.952607,22.048,RFS49295,-72.549661723527,42.332425875421,13.5003035
Bankok Bistro,Full-Service Restaurants,722511,433 Washington St,Brighton,Suffolk,MA,2135,14.6184555,18.656,RFS195048,-71.157247694999,42.349148608329,16.63722775
Bankok Cafe,Full-Service Restaurants,722511,10 Foxboro Blvd Ste 210,Foxboro,Norfolk,MA,2035,10.3303695,16.96,RFS27317,-71.234450571846,42.036472318148,13.64518475
Banks Catering,Caterers,722320,71 Carroll Rd,North Grafton,Worcester,MA,1536,3.830739,20.352,RFS20604,-71.687244998054,42.225163202081,12.0913695
"Bany Restaurant, Inc.",Full-Service Restaurants,722511,215 Emery Ave,Lowell,Middlesex,MA,1854,7.8933855,11.872,RFS120261,-71.328726174423,42.658414032785,9.88269275
Bao & Mein Inc,Full-Service Restaurants,722511,1 Rogers St,Cambridge,Middlesex,MA,2142,3.9607755,20.352,RFS26915,-71.076792327757,42.365811946447,12.15638775
Bar Rock Cafe Salsa TEC LLC,Full-Service Restaurants,722511,168 Broadway,Lawrence,Essex,MA,1840,2.511135,11.872,RFS91941,-71.169743851688,42.706657845892,7.1915675
Bar Rustic,Full-Service Restaurants,722511,15 Cherokee Rd,Canton,Norfolk,MA,2021,11.363418,18.656,RFS79372,-71.133240553737,42.196269728276,15.009709
Baraka Cafe,Full-Service Restaurants,722511,1728 Massachusetts Ave,Cambridge,Middlesex,MA,2138,2.503281,5.088,RFS95396,-71.119604334741,42.384223654525,3.7956405
Barbara Lynch Gruppo Inc.,Full-Service Restaurants,722511,550 Tremont St,Boston,Suffolk,MA,2116,0.802626,15.264,RFS219995,-71.07147352466,42.343962139017,8.033313
Barbara Mc Queen,Limited-Service Restaurants,722513,11 Kent St APT 1,Brookline,Norfolk,MA,2445,11.363418,16.5,RFS294010,-71.118145088063,42.333224120714,13.931709
Barbeque International,Full-Service Restaurants,722511,40 Bow St,Somerville,Middlesex,MA,2143,2.305479,10.176,RFS184017,-71.097540007788,42.381400193172,6.2407395
Barbers Crossing North,Full-Service Restaurants,722511,861 Main St,Leicester,Worcester,MA,1524,122.82,150.944,RFS268306,-71.899106499012,42.246037229278,136.882
Barbs Riverside Cafe,Full-Service Restaurants,722511,131 Westminster St,Fitchburg,Worcester,MA,1420,2.046528,10.176,RFS65358,-71.837447599776,42.574213134019,6.111264
Barcelona Restaurant,Full-Service Restaurants,722511,1700 Beacon St,Brookline,Norfolk,MA,2445,9.66,11.872,RFS93087,-71.138776019792,42.338669648736,10.766
Barcos Y Tacos,Full-Service Restaurants,722511,2 Sanford Rd,Nantucket,Nantucket,MA,2554,17.94,47.575077,RFS108841,-70.094857912799,41.272436205632,32.7575385
"Bardley's Chicken & Lobster, Inc.",Full-Service Restaurants,722511,180 Telford St Unit 511,Brighton,Suffolk,MA,2135,9.3026505,11.872,RFS98711,-71.137455243218,42.362967816991,10.58732525
"Barewolf Brewing, LLC",Full-Service Restaurants,722511,130 Martin Rd,Concord,Middlesex,MA,1742,1.863873,13.568,RFS63851,-71.344934115815,42.465550700728,7.7159365
"Baristico, LLC",Full-Service Restaurants,722511,3710 Washington St,Jamaica Plain,Suffolk,MA,2130,15.9473985,20.352,RFS177806,-71.113119606072,42.300464119218,18.14969925
Barking Dog Grill,Limited-Service Restaurants,722513,77 Washington St,Haverhill,Essex,MA,1832,2.73999,12,RFS430761,-71.084666767774,42.77312452382,7.369995
Barlow's Clam Shack,Full-Service Restaurants,722511,856 Scenic Hwy,Bourne,Barnstable,MA,2532,1.4971935,8.48,RFS267819,-70.557791433111,41.774983094972,4.98859675
Barn Brew LLC,Full-Service Restaurants,722511,30 1st St Ste 1,Bridgewater,Plymouth,MA,2324,11.9711295,20.352,RFS153122,-71.023500298188,41.972067538583,16.16156475
"Barnacle Enterprises, Inc",Full-Service Restaurants,722511,102 Fourth Ave W,Hyannis Port,Barnstable,MA,2647,1.204995,3.392,RFS32724,-70.319147817078,41.636520675777,2.2984975
Barney Restaurant Group LLC,Full-Service Restaurants,722511,311 Bear Hill Rd,North Andover,Essex,MA,1845,10.4982075,50.88,RFS159371,-71.083200492157,42.678733497853,30.68910375
Barre Pizza,Limited-Service Restaurants,722513,10 Moulton St,Barre,Worcester,MA,1005,4.7819475,4.7819475,RFS284737,-72.104734623147,42.421784146713,4.7819475
Barrel House American Bar,Full-Service Restaurants,722511,256 Cabot St,Beverly,Essex,MA,1915,13.9431435,22.048,RFS139502,-70.877942186715,42.5497440658,17.99557175
Barry's Village Deli Inc,Limited-Service Restaurants,722513,6 Windsor Rd,Waban,Middlesex,MA,2468,11.276067,25.5,RFS412928,-71.230878072623,42.327378106801,18.3880335
Bartlett Corner Inc.,Full-Service Restaurants,722511,47 Ridgehill Rd,Attleboro,Bristol,MA,2703,5.6462175,15.264,RFS202506,-71.241215081235,41.9360160477,10.45510875
Basha Cafe,Full-Service Restaurants,722511,26 New St,Cambridge,Middlesex,MA,2138,3.7147275,15.264,RFS140477,-71.140851719723,42.387519313133,9.48936375
